,date_witness,date_agent,witness,agent,latitude,longitude,city,country,region_hq,has_weapon,has_hat,has_jacket,behavior
0,2007-07-23,2007-08-24,Cynthia Howell,Kathleen Munoz,8.35122,-62.64102,Ciudad Guayana,VE,Caracas,False,True,True,fleeing
1,1998-12-17,1998-12-22,Travis Austin,Jennifer Swanson,33.54428,-84.23381,Stockbridge,US,New York,True,True,True,tense
2,2015-01-22,2015-02-11,David Erickson,Eric Roberts,46.1351,-60.1831,Sydney,CA,Glace Bay,False,True,True,injured
3,2011-12-07,2012-02-02,Andrew Ramirez,Grant Humphrey,14.67751,-60.94228,Le Robert,MQ,Martinique,False,True,True,friendly
4,2010-01-30,2010-02-15,Abigail Andrews,Paul Rogers,42.4251,-71.06616,Malden,US,New York,False,False,True,scared
5,2008-09-16,2008-09-23,Andrea Myers,Austin Williams,20.28527,-103.42897,Jocotepec,MX,Mexico City,False,False,True,complaining
6,1991-07-08,1991-07-26,William Rodriguez,Kelly Lindsey,8.79577,-75.69947,San Carlos,CO,Bogota,False,False,False,hostile
7,2002-05-23,2002-07-17,Dr. Robert Kirk,Kim Dyer,-19.32556,-41.25528,Resplendor,BR,Sao Paulo,False,True,True,injured
8,2015-12-12,2015-12-29,Aaron Lee,Elizabeth Cook,32.5007,-94.74049,Longview,US,Chicago,False,False,True,panicking
9,2003-02-10,2003-04-09,Michael Weaver,Nancy White,33.95015,-118.03917,South Whittier,US,Los Angeles,False,True,True,out-of-control
10,2018-03-19,2018-05-07,Kevin Terry,Stephen Ferguson,39.96097,-75.60804,West Chester,US,New York,False,False,True,unhappy
11,2003-08-09,2003-08-16,Linda Fox,Ronald Wong PhD,10.98778,-74.95472,Puerto Colombia,CO,Bogota,True,False,True,confessing
12,2001-05-14,2001-05-15,Anthony Williams,Matthew Chavez,41.66394,-83.55521,Toledo,US,New York,False,False,True,complaining
13,2019-05-06,2019-06-12,Laura Thomas,Steven Edwards,13.70167,-89.10944,Ilopango,SV,El Salvador,False,True,True,friendly
14,2000-04-12,2000-06-02,Paul Stevenson,Grant Humphrey,10.98778,-74.95472,Puerto Colombia,CO,Bogota,False,True,True,injured
15,1998-12-10,1999-01-27,Joshua Garrett,Marie Hill,45.16024,-93.08883,Lino Lakes,US,Chicago,False,True,False,unhappy
16,2010-09-24,2010-09-28,Michael Benjamin,Crystal Kelly,34.95303,-120.43572,Santa Maria,US,Los Angeles,False,False,True,over-complimenting
17,1994-06-05,1994-07-02,Mary Ford,Ernest Spencer,-15.675,-38.94722,Canavieiras,BR,Bahia,False,True,True,worried
18,2015-07-19,2015-07-19,Marcus Rivas,Carrie Boone,42.16808,-88.42814,Huntley,US,Chicago,True,True,True,paranoid
19,2019-12-01,2019-12-14,Philip Mayer MD,Michelle Jarvis,43.54072,-116.56346,Nampa,US,Boise,False,True,True,fleeing
20,1992-10-28,1992-12-10,George Stephens,Jeremy Mason,41.72059,-87.70172,Evergreen Park,US,Chicago,False,False,True,injured
21,1993-01-16,1993-01-27,Nicole West,Robert Maxwell,30.17746,-81.38758,Palm Valley,US,New York,False,False,True,happy
22,2005-06-28,2005-07-24,Joseph Allen,Joseph Nguyen,41.55838,-81.56929,Collinwood,US,New York,False,False,True,tense
23,2020-08-23,2020-09-09,Crystal Medina,Stephen Graham,46.1351,-60.1831,Sydney,CA,Glace Bay,False,True,True,worried
24,2017-09-17,2017-10-28,Sara Johnson,Allen Lawrence,-31.25033,-61.4867,Rafaela,AR,Argentina,False,True,True,oblivious
25,2019-11-07,2019-12-06,Samantha Baker,Kenneth Stevenson,3.8801,-77.03116,Buenaventura,CO,Bogota,False,True,True,accusatory
26,2007-08-31,2007-10-08,Michelle Davis,Todd Garcia,-19.32556,-41.25528,Resplendor,BR,Sao Paulo,False,True,True,accusatory
27,2010-07-03,2010-07-29,Stephanie Ellis,Eric Roberts,-19.72806,-50.19556,Iturama,BR,Sao Paulo,False,True,True,sad
28,2012-03-16,2012-04-13,Timothy Wheeler,Amy Bray,42.24113,-88.3162,Crystal Lake,US,Chicago,False,False,True,scared
29,1991-11-10,1991-11-29,Brian Drake,Michael Smith,40.5576,-74.28459,Woodbridge,US,New York,False,False,True,evasive
30,1999-09-13,1999-11-11,Vincent Benson,Chad Graham,41.14676,-73.49484,New Canaan,US,New York,False,True,True,friendly
31,1990-11-02,1990-12-10,Susan Watson,Ronald Friedman,33.95015,-118.03917,South Whittier,US,Los Angeles,False,True,True,unhappy
32,2009-06-03,2009-07-12,Patricia Nunez,Christian Moore,45.43341,-73.86586,Beaconsfield,CA,Toronto,False,True,False,accusatory
33,1991-06-29,1991-07-17,Melissa Reyes,Edward Anderson,32.52515,-93.75018,Shreveport,US,Chicago,False,False,True,happy
34,1986-01-09,1986-01-23,Angela Martinez,Michael Riddle,-27.4338,-65.61427,Aguilares,AR,Argentina,False,True,True,oblivious
35,2008-09-19,2008-09-19,Rachel Mills,Cynthia Carr,43.61062,-72.97261,Rutland,US,New York,False,True,True,over-complimenting
36,1992-05-18,1992-06-19,Christine Harris,Anna Flores,21.01858,-101.2591,Guanajuato,MX,Mexico City,False,True,True,evasive
37,2000-11-25,2000-11-25,Andrea Alvarez,Wesley Horton,29.84576,-90.10674,Estelle,US,Chicago,False,False,True,lonely
38,1991-09-07,1991-09-10,Cheryl King,Gerald Green,36.06523,-119.01677,Porterville,US,Los Angeles,False,False,True,lonely
39,2000-05-09,2000-06-29,James Parker,Christopher Miller,26.91756,-82.07842,Punta Gorda Isles,US,New York,True,False,True,paranoid
40,2013-06-24,2013-08-03,Brian Anderson,Carla Reyes,19.32932,-98.1664,Contla,MX,Mexico City,False,True,True,panicking
41,2011-07-30,2011-08-14,Walter Cooper,Jeanne Green,40.2737,-76.88442,Harrisburg,US,New York,False,True,True,happy
42,2006-05-30,2006-07-27,Andrea Harris,Jeremy Moran,10.15031,-73.9614,El Copey,CO,Bogota,False,False,True,over-complimenting
43,2014-03-03,2014-04-17,Amy Anderson,Emily Ruiz,18.20854,-71.10077,Santa Cruz de Barahona,DO,Santo Domingo,False,True,True,tense
44,2009-04-11,2009-04-14,Dillon Sanchez,Zachary Hawkins,39.57582,-105.11221,Ken Caryl,US,Denver,False,False,True,evasive
45,1999-06-19,1999-07-08,James Robinson,Jennifer Hernandez,38.91817,-78.19444,Front Royal,US,New York,False,False,True,silent
46,2013-08-18,2013-09-17,Theresa Morrison,Patricia Miller,-10.91111,-37.07167,Aracaju,BR,Maceio,False,False,True,silent
47,2020-06-24,2020-07-10,Eric Bailey,Dr. Crystal Mccormick,27.71809,-82.35176,Sun City Center,US,New York,False,True,True,unhappy
48,1989-03-16,1989-04-01,Tiffany Porter,Melissa Meyers,-30.60106,-71.19901,Ovalle,CL,Santiago,False,True,True,out-of-control
49,2011-04-28,2011-05-12,Kathy Frazier,Loretta Wood,41.50343,-74.01042,Newburgh,US,New York,False,True,True,over-complimenting
50,1988-05-06,1988-06-03,Kari Campos,Andre Lamb,5.20856,-74.73584,Honda,CO,Bogota,True,True,True,paranoid
51,1988-02-04,1988-03-14,Desiree Ryan,Brian Haas,-25.42778,-49.27306,Curitiba,BR,Sao Paulo,False,True,True,tense
52,1999-09-01,1999-10-22,Nathan Hensley,Leslie Curtis,-54.8,-68.3,Ushuaia,AR,Argentina,False,True,True,insulting
53,1989-05-08,1989-06-07,Taylor Brown,Caleb Cook,-31.4488,-60.93173,Esperanza,AR,Argentina,False,True,True,insulting
54,1998-02-21,1998-04-13,William Phillips,Karen Nguyen,27.71809,-82.35176,Sun City Center,US,New York,False,True,True,out-of-control
55,1998-04-20,1998-05-31,Carol Macias,Brandon Miller,32.52515,-93.75018,Shreveport,US,Chicago,False,False,True,fleeing
56,2002-12-18,2002-12-27,Amy Hardy,Daniel Brown,-28.44917,-52.2,Marau,BR,Sao Paulo,False,True,True,insulting
57,2018-04-21,2018-05-20,Patricia Dickson,Glenn Li,45.53929,-122.38731,Troutdale,US,Los Angeles,False,True,True,unhappy
58,2021-03-20,2021-04-04,Maria Jackson,Adam Smith,11.84962,-86.19903,Jinotepe,NI,Managua,False,False,True,happy
59,2001-01-30,2001-03-17,Brian Hodges,Ashley Taylor,23.0072,-82.4017,Boyeros,CU,Havana,False,False,True,over-complimenting
60,2018-12-14,2018-12-27,Daniel Anderson,John Turner,45.16024,-93.08883,Lino Lakes,US,Chicago,False,True,True,silent
61,2006-10-03,2006-10-12,Ms. Joanne Brennan DVM,Joseph Ramirez,45.4473,-73.75335,Dorval,CA,Toronto,False,False,True,tense
62,1996-12-19,1997-02-03,Christopher Hamilton,Sarah Reynolds,34.14251,-118.25508,Glendale,US,Los Angeles,False,True,True,evasive
63,1999-07-24,1999-08-31,Bob Salinas,Amber Wright,13.70167,-89.10944,Ilopango,SV,El Salvador,False,True,True,complaining
64,2004-02-04,2004-02-06,Michael Beard,Casey Wheeler,-4.24444,-42.29444,Barras,BR,Fortaleza,False,True,True,injured
65,2020-07-10,2020-07-24,Lydia Watkins,Maurice Mccarthy,40.5576,-74.28459,Woodbridge,US,New York,False,False,True,happy
66,1987-05-03,1987-06-22,Amanda Day,Tammy Lutz,43.54072,-116.56346,Nampa,US,Boise,False,False,True,sad
67,2011-02-17,2011-02-18,Emily Martinez,Kari Chandler,19.8173,-97.35992,Teziutlan,MX,Mexico City,False,False,True,over-complimenting
68,2000-03-02,2000-04-25,Brian Conway,Rose Reed,-22.45667,-47.53028,Santa Gertrudes,BR,Sao Paulo,False,True,False,talkative
69,2012-04-08,2012-05-22,Angela Hardin,Ashley Taylor,-21.205,-41.88778,Itaperuna,BR,Sao Paulo,True,True,True,injured
70,2021-10-26,2021-12-04,Catherine Peterson,Gregory Hanson,40.68066,-73.47429,Massapequa,US,New York,False,True,True,injured
71,1988-01-13,1988-02-02,Lori Griffith,Christian Moore,-3.74912,-73.25383,Iquitos,PE,Lima,True,False,True,paranoid
72,2021-08-06,2021-09-21,Amber Case,Jasmine Rowland,39.43534,-84.20299,Lebanon,US,New York,False,True,True,worried
73,2011-05-28,2011-06-14,Amy Lucas,Rebecca Jackson,43.54072,-116.56346,Nampa,US,Boise,False,True,True,friendly
74,2013-05-11,2013-06-25,Jessica Rosales,Darren Simpson,13.73417,-89.71472,Sonzacate,SV,El Salvador,False,True,False,insulting
75,2005-08-27,2005-09-03,Christina Perez,Ashley Taylor,10.15031,-73.9614,El Copey,CO,Bogota,False,True,True,sad
76,2007-10-06,2007-11-21,Nicole Fowler,Stephen Ferguson,38.17492,-122.2608,American Canyon,US,Los Angeles,False,True,True,hostile
77,1985-09-15,1985-10-29,Michael Ramos,Allen Lawrence,47.80527,-122.24064,Bothell West,US,Los Angeles,False,True,True,evasive
78,1992-03-15,1992-05-03,Amber Peters,Stephen Ferguson,29.84576,-90.10674,Estelle,US,Chicago,False,False,True,worried
79,1998-08-07,1998-09-13,James Sutton,Jose Hunt,-10.95817,-38.79084,Tucano,BR,Bahia,False,True,True,oblivious
80,2004-10-25,2004-12-06,Kenneth Escobar,Kimberly Gibson,37.71715,-122.40433,Visitacion Valley,US,Los Angeles,False,False,True,over-complimenting
81,2000-10-03,2000-10-18,Cassidy Evans,Ronnie Anthony,-25.42778,-49.27306,Curitiba,BR,Sao Paulo,False,True,True,happy
82,2011-05-26,2011-07-21,Robin Parker,Connie Ramos,31.12406,-97.90308,Copperas Cove,US,Chicago,False,False,False,scared
83,2000-05-24,2000-06-06,Ashley Watson,Ashley Carr,40.24537,-75.64963,Pottstown,US,New York,False,True,True,worried
84,1999-10-21,1999-11-30,Madison Brown,Mrs. Kristin Lopez MD,39.09112,-94.41551,Independence,US,Chicago,False,True,True,happy
85,2005-03-03,2005-03-12,Andrea Kelly,Charles Leonard,18.20854,-71.10077,Santa Cruz de Barahona,DO,Santo Domingo,False,True,True,insulting
86,2002-11-01,2002-12-04,Lisa Romero,Taylor Robinson,-23.44361,-51.87389,Sarandi,BR,Sao Paulo,False,True,True,paranoid
87,1988-11-04,1988-12-30,Jose Williams,Julian Anderson,-31.25033,-61.4867,Rafaela,AR,Argentina,False,True,True,injured
88,2007-08-07,2007-09-11,Mary Klein,Kim Dyer,19.32889,-99.32556,San Lorenzo Acopilco,MX,Mexico City,False,True,False,worried
89,1987-06-21,1987-08-10,Mary Mcmahon,Miranda Lester,40.64621,-73.97069,Kensington,US,New York,False,True,True,friendly
90,2006-03-19,2006-04-17,Matthew Bradley,Kimberly Perez,21.01858,-101.2591,Guanajuato,MX,Mexico City,False,False,True,paranoid
91,2019-08-08,2019-08-17,Brittney Vazquez,Latasha Norris,-11.94306,-76.70944,Chosica,PE,Lima,True,True,True,unhappy
92,2007-04-26,2007-05-24,Brittany Delacruz,Ashley Taylor,-3.74912,-73.25383,Iquitos,PE,Lima,False,False,True,injured
93,2003-12-06,2004-02-03,Elizabeth Williams,Stephen Graham,40.65538,-74.38987,Scotch Plains,US,New York,False,True,True,evasive
94,1987-10-21,1987-11-17,Dr. Steven Mitchell,Timothy Maldonado,18.42745,-67.15407,Aguadilla,PR,Puerto Rico,False,False,True,lonely
95,1995-03-23,1995-05-16,Aaron Walker,Tony Bell,-28.24,-48.67028,Imbituba,BR,Sao Paulo,False,False,True,complaining
96,2006-06-04,2006-07-01,Jesse Shields,Regina Henderson,-8.66667,-35.71667,Catende,BR,Recife,True,False,True,tense
97,2000-03-12,2000-04-15,Jacob Delgado,Jeffrey Graves MD,32.44874,-99.73314,Abilene,US,Chicago,True,True,True,injured
98,2009-07-13,2009-07-27,Crystal Anderson,Lucas Kirk,42.35843,-71.05977,Boston,US,New York,False,True,True,happy
99,2005-01-09,2005-02-26,Anthony Gallegos,Cynthia Carr,41.50343,-74.01042,Newburgh,US,New York,False,True,True,silent
100,2015-11-19,2015-12-29,Colleen James,Steven Edwards,40.5576,-74.28459,Woodbridge,US,New York,False,False,True,silent
101,2022-01-23,2022-03-10,Stephanie Davis,Parker Mitchell,18.42745,-67.15407,Aguadilla,PR,Puerto Rico,False,True,False,silent
102,1998-12-29,1999-01-18,Vanessa Morgan,Robert Jenkins,40.57788,-73.95958,Brighton Beach,US,New York,False,True,True,oblivious
103,2012-05-24,2012-06-18,Melissa Walls,James Brock,41.14676,-73.49484,New Canaan,US,New York,False,False,True,lonely
104,2008-11-29,2008-12-23,Tina Young,Justin White,-34.64966,-58.38341,Barracas,AR,Argentina,False,False,True,insulting
105,2006-06-12,2006-08-06,Megan Garcia,Mrs. Kristin Lopez MD,19.8173,-97.35992,Teziutlan,MX,Mexico City,False,True,True,friendly
106,1997-09-03,1997-09-17,Robin Rodriguez,Daniel Brown,20.22816,-103.5687,Zacoalco de Torres,MX,Mexico City,False,False,True,worried
107,2002-06-11,2002-08-04,Bryan Wright,William Zuniga,42.35843,-71.05977,Boston,US,New York,False,True,True,evasive
108,2010-03-18,2010-04-05,Michelle Ballard,Brian Hickman,35.74788,-95.36969,Muskogee,US,Chicago,False,True,True,insulting
109,1991-08-11,1991-09-25,Alyssa Hughes,Bradley Ewing,23.04419,-82.00919,Jaruco,CU,Havana,False,True,True,evasive
110,2020-10-27,2020-10-27,Mark Lawson,Christopher Greer,41.75338,-86.11084,Granger,US,Indiana,False,False,True,sad
111,2014-01-25,2014-02-07,Debra Jones,David Murphy,31.12406,-97.90308,Copperas Cove,US,Chicago,False,True,True,scared
112,1989-08-07,1989-09-18,Tammy Williams,Kelly Barnes,53.51684,-113.3187,Sherwood Park,CA,Edmonton,False,True,False,oblivious
113,1991-11-16,1992-01-03,Johnny Rojas,Teresa Sanchez,-21.42917,-45.94722,Alfenas,BR,Sao Paulo,False,False,True,friendly
114,1999-11-04,1999-12-26,Elizabeth Moore,Chris Campbell Jr.,19.04222,-98.11889,Casa Blanca,MX,Mexico City,False,False,True,worried
115,1986-03-10,1986-05-07,Mary Leblanc,Jacob Salazar,45.49428,-122.86705,Aloha,US,Los Angeles,False,True,True,tense
116,1988-07-12,1988-07-22,Heather Mccall,Kevin Evans,23.04419,-82.00919,Jaruco,CU,Havana,False,True,True,over-complimenting
117,1988-08-30,1988-09-16,Elizabeth Martinez,Tony Bell,-16.25,-69.08333,Yunguyo,PE,Lima,False,True,True,scared
118,1996-11-03,1996-11-28,Jonathan Williams,Darren Simpson,39.33427,-76.43941,Middle River,US,New York,False,True,True,over-complimenting
119,1989-01-27,1989-01-28,Christina Thompson,Lacey Brown,-12.91667,-39.25,Muritiba,BR,Bahia,False,False,True,complaining
120,1985-10-11,1985-10-25,Kristina Taylor,Angela Strickland,-10.95817,-38.79084,Tucano,BR,Bahia,False,True,True,oblivious
121,2009-11-15,2009-12-30,Deborah Brennan,William Joseph,38.91817,-78.19444,Front Royal,US,New York,False,True,True,accusatory
122,2004-08-05,2004-09-28,Mark Munoz,Andre Lamb,41.0051,-73.78458,Scarsdale,US,New York,False,True,True,confessing
123,1991-09-27,1991-10-02,Jeffrey Lawson,Daniel Moore,18.00747,-76.78319,New Kingston,JM,Jamaica,False,True,True,silent
124,1992-09-26,1992-11-20,Jill Jennings,Jennifer Swanson,41.6764,-91.58045,Coralville,US,Chicago,False,False,True,worried
125,2010-11-21,2010-12-21,Karen Flores,Timothy Maldonado,25.87972,-97.50417,Heroica Matamoros,MX,Matamoros,False,False,True,paranoid
126,1994-08-29,1994-09-12,Elizabeth Baxter,Mark Williams,32.54044,-82.90375,Dublin,US,New York,False,True,True,injured
127,2003-07-23,2003-09-02,Benjamin Cisneros,Chad Graham,13.73417,-89.71472,Sonzacate,SV,El Salvador,True,True,True,accusatory
128,2010-08-30,2010-09-25,Jonathan Price,Nathaniel Jackson,42.97086,-82.42491,Port Huron,US,Detroit,True,True,True,lonely
129,2002-02-17,2002-03-22,Reginald Delgado DDS,Alan Ford,-15.675,-38.94722,Canavieiras,BR,Bahia,True,False,True,tense
130,2005-11-20,2005-12-16,Timothy Hawkins,Gina Howard,-15.21194,-75.11028,Minas de Marcona,PE,Lima,False,True,True,oblivious
131,2019-03-11,2019-03-20,Alyssa Jenkins,Dawn Pierce,4.73245,-74.26419,Madrid,CO,Bogota,False,True,True,scared
132,2015-10-17,2015-10-24,Teresa Norton,Shannon Camacho,18.65297,-72.09391,Thomazeau,HT,Port-au-Prince,False,False,False,fleeing
133,2015-03-25,2015-04-09,James Thornton,Leslie Anderson,40.67705,-73.89125,Cypress Hills,US,New York,False,True,True,out-of-control
134,2007-01-30,2007-02-25,Benjamin Pearson,Kathleen Hicks,8.88988,-79.62603,Veracruz,PA,Panama,True,True,True,insulting
135,1991-04-25,1991-05-30,Michelle Davis,Timothy Frank,39.57582,-105.11221,Ken Caryl,US,Denver,False,True,True,complaining
136,1995-01-15,1995-01-16,Stephanie Callahan,Latasha Norris,40.68066,-73.47429,Massapequa,US,New York,False,True,True,silent
137,2002-09-27,2002-11-24,Matthew King,Nancy White,40.34912,-111.90466,Saratoga Springs,US,Denver,False,False,True,unhappy
138,2004-05-25,2004-07-01,Emily Lee,Alison Peterson,9.91861,-68.30472,Tinaquillo,VE,Caracas,False,True,False,happy
139,2020-06-16,2020-06-29,Arthur Barton,Christopher Miller,18.20854,-71.10077,Santa Cruz de Barahona,DO,Santo Domingo,False,True,True,scared
140,2009-10-23,2009-11-04,Travis Ramirez,Donna Mathis,34.63915,-120.45794,Lompoc,US,Los Angeles,False,True,True,hostile
141,2000-04-17,2000-05-30,Stephen Khan,Michael Tate,40.60538,-73.75513,Far Rockaway,US,New York,False,True,True,worried
142,1986-01-01,1986-02-20,Zachary Simpson,Mark Ferguson,40.58654,-122.39168,Redding,US,Los Angeles,False,True,True,evasive
143,2014-11-28,2015-01-26,Terry Williams,Teresa Diaz,37.60876,-77.37331,Mechanicsville,US,New York,False,False,True,tense
144,1991-03-10,1991-03-29,Joseph Wong,Shelia Holmes,33.7207,-116.21677,Indio,US,Los Angeles,False,True,True,fleeing
145,1994-02-08,1994-03-19,Joseph Carlson,Mary Scott,10.63504,-85.43772,Liberia,CR,Costa Rica,False,False,True,scared
146,1989-04-06,1989-06-03,Patrick Soto PhD,David Woodward,9.15093,-79.62098,Chilibre,PA,Panama,False,True,True,worried
147,2002-03-12,2002-04-27,Cynthia Giles,Jacob Santiago,25.87972,-97.50417,Heroica Matamoros,MX,Matamoros,False,True,True,scared
148,1997-04-09,1997-06-04,Brittany Perez,Jennifer Snyder,36.02506,-86.77917,Brentwood Estates,US,Chicago,False,True,True,talkative
149,2017-05-29,2017-07-17,Lori Miller,Connie Ramos,33.54428,-84.23381,Stockbridge,US,New York,False,True,True,complaining
150,2002-06-28,2002-08-05,Laura Gomez,Kerry Buck,41.14676,-73.49484,New Canaan,US,New York,False,True,True,oblivious
151,2010-08-21,2010-09-23,Diane Pope,Brittany Burnett,41.24255,-82.61573,Norwalk,US,New York,False,True,True,panicking
152,2000-05-01,2000-05-27,Julie Wilson,Bryce Alvarado,9.92787,-84.13722,San Rafael,CR,Costa Rica,True,False,True,tense
153,2005-01-06,2005-02-16,Tracy Andrews,Adam Montes,20.14298,-77.43532,Media Luna,CU,Havana,False,True,True,panicking
154,2005-04-16,2005-05-20,Jerry Love,Billy White,-2.90055,-79.00453,Cuenca,EC,Guayaquil,False,True,True,tense
155,2019-08-24,2019-09-19,Debra Gross,Melissa Ellis,-22.53722,-42.98194,Guapimirim,BR,Sao Paulo,False,True,True,scared
156,2003-10-31,2003-11-02,Garrett Dean,Barbara Bailey,-34.74785,-58.70072,Pontevedra,AR,Argentina,False,False,True,fleeing
157,2016-11-21,2017-01-19,Dr. Katie Meadows,Loretta Wood,44.99012,-123.02621,Keizer,US,Los Angeles,False,True,True,scared
158,2000-11-15,2000-12-06,Adam Adams,Angela Johnson,46.32374,-120.00865,Sunnyside,US,Los Angeles,False,False,True,out-of-control
159,2022-01-26,2022-03-13,Richard Edwards,Karen Nguyen,40.93121,-73.89875,Yonkers,US,New York,False,True,True,sad
160,2017-11-09,2017-12-23,Natasha Mayer,Michael Sims,-30.60106,-71.19901,Ovalle,CL,Santiago,False,True,True,insulting
161,2006-03-08,2006-03-28,Destiny Frazier,Kenneth Stevenson,33.76446,-117.79394,North Tustin,US,Los Angeles,False,True,True,silent
162,2005-11-19,2005-12-01,Mary Higgins,Sarah Peters,37.71715,-122.40433,Visitacion Valley,US,Los Angeles,False,False,True,paranoid
163,1995-10-07,1995-10-10,Alexis Garcia,Matthew Chavez,-10.90889,-37.03861,Barra dos Coqueiros,BR,Maceio,False,True,False,oblivious
164,2006-03-20,2006-05-14,Penny Williams,Alexa Flores,11.84962,-86.19903,Jinotepe,NI,Managua,True,True,True,oblivious
165,2008-01-13,2008-01-30,Arthur Mcdaniel,Paul Rogers,-2.90055,-79.00453,Cuenca,EC,Guayaquil,False,True,True,accusatory
166,1999-02-06,1999-02-16,Kathy Roberson,Richard Lambert,33.50921,-111.89903,Scottsdale,US,Phoenix,False,True,True,unhappy
167,1996-06-07,1996-07-31,Laura Clayton,Jordan Torres,41.16704,-73.20483,Bridgeport,US,New York,False,True,True,lonely
168,1986-07-22,1986-08-21,Richard Henderson,Kyle Thomas,32.42067,-104.22884,Carlsbad,US,Denver,False,False,True,friendly
169,1999-07-07,1999-07-22,Antonio Coleman,Jose Hunt,-31.4488,-60.93173,Esperanza,AR,Argentina,False,True,True,paranoid
170,2017-04-02,2017-05-02,Christine Cohen,Daniel Moore,-23.7975,-48.59278,Buri,BR,Sao Paulo,False,False,True,panicking
171,1990-02-02,1990-03-28,Maurice Ortiz Jr.,Mr. Rodney Franco,44.27804,-88.27205,Kaukauna,US,Chicago,False,True,True,hostile
172,2021-03-07,2021-04-18,Kim Perez,Dominic Peters,18.03496,-66.8499,Yauco,PR,Puerto Rico,False,True,True,sad
173,2011-05-10,2011-06-26,Dillon Miller,Garrett Allen,40.56754,-89.64066,Pekin,US,Chicago,False,True,True,friendly
174,1996-04-08,1996-05-08,Victor Vega,Richard Harris,-10.91722,-37.65,Lagarto,BR,Maceio,False,True,True,silent
175,2010-07-19,2010-08-31,James Stevenson,Kim Dyer,-34.64167,-60.47389,Chacabuco,AR,Argentina,False,False,True,talkative
176,2007-07-15,2007-07-22,Miranda Bullock,Denise Kramer,9.92787,-84.13722,San Rafael,CR,Costa Rica,False,True,True,happy
177,1994-07-02,1994-08-04,Zachary Powell,Susan Thomas,42.7392,-84.62081,Waverly,US,Detroit,False,True,False,tense
178,2019-02-11,2019-03-06,Kristina Hawkins,James Anderson,34.21639,-119.0376,Camarillo,US,Los Angeles,False,True,True,talkative
179,2022-06-16,2022-07-11,Jennifer Brown,David Strong,-21.41222,-42.19667,Miracema,BR,Sao Paulo,False,True,True,worried
180,2022-04-05,2022-04-18,Dr. Gary Ramirez,Brian Delacruz,40.2737,-76.88442,Harrisburg,US,New York,False,True,True,lonely
181,2022-03-10,2022-04-26,Leslie Sosa,Stacey Morris,40.81,-73.9625,Morningside Heights,US,New York,False,True,True,sad
182,2011-05-16,2011-05-22,Matthew Brooks,Darlene Pitts,40.65995,-111.99633,Kearns,US,Denver,False,False,True,confessing
183,1989-09-16,1989-11-03,Reginald Wood,Nicole Hart,18.03496,-66.8499,Yauco,PR,Puerto Rico,True,False,True,oblivious
184,1989-08-09,1989-09-27,David Curtis,Allen Baker,40.58654,-122.39168,Redding,US,Los Angeles,True,False,True,friendly
185,1997-05-21,1997-06-11,Brooke Osborne,Rebecca Rodriguez,41.72059,-87.70172,Evergreen Park,US,Chicago,False,True,True,talkative
186,2014-08-02,2014-09-05,Brandi Lopez,James Bryant,40.68066,-73.47429,Massapequa,US,New York,True,True,True,sad
187,1988-04-04,1988-04-28,Lori Miller,Jeremy Moran,43.86682,-79.2663,Markham,CA,Toronto,False,False,False,lonely
188,2022-02-24,2022-03-07,Matthew Rodriguez,Chloe Harris,18.65297,-72.09391,Thomazeau,HT,Port-au-Prince,False,True,True,over-complimenting
189,1996-10-09,1996-10-29,Shane Jackson,Todd Garcia,-20.87306,-48.29694,Viradouro,BR,Sao Paulo,False,True,True,sad
190,2007-01-25,2007-02-12,Seth Hayes,Steven Edwards,41.85059,-87.882,Westchester,US,Chicago,False,True,True,insulting
191,1993-03-31,1993-05-27,Kathy Cole,Denise Johnson,-12.91667,-39.25,Muritiba,BR,Bahia,False,True,True,talkative
192,2002-08-02,2002-08-17,Marco Walker,Fernando Davis,-28.81833,-52.51028,Soledade,BR,Sao Paulo,False,True,True,over-complimenting
193,1998-07-24,1998-08-01,Justin Smith,Donna Mathis,40.72371,-73.95097,Greenpoint,US,New York,False,False,True,confessing
194,1989-05-01,1989-06-01,Abigail Collins,Rita Johnson,22.49396,-105.36369,Acaponeta,MX,Mazatlan,True,True,True,silent
195,1988-03-23,1988-03-30,Michael Bowers,Annette Barrett,33.98154,-81.23621,Lexington,US,New York,False,False,True,evasive
196,2003-11-03,2003-11-30,Rachel Mckenzie,Cynthia Moore,20.74122,-100.44843,Santa Rosa Jauregui,MX,Mexico City,False,True,True,over-complimenting
197,2011-05-07,2011-05-08,Meghan Craig,Rachel Barnes,39.08367,-84.50855,Covington,US,New York,False,False,True,out-of-control
198,2019-01-16,2019-02-25,Rodney Munoz,Miranda Lester,40.57788,-73.95958,Brighton Beach,US,New York,False,True,True,fleeing
199,1995-08-21,1995-10-13,Sean Rodriguez,Karen Keller MD,40.93121,-73.89875,Yonkers,US,New York,False,True,False,scared
200,1998-11-17,1998-11-26,Tricia Stafford,Cynthia Villegas,44.99012,-123.02621,Keizer,US,Los Angeles,False,True,True,panicking
201,2013-11-03,2013-11-18,Christina Gilbert,Nicholas Powell,29.84576,-90.10674,Estelle,US,Chicago,False,True,True,accusatory
202,2017-09-26,2017-11-11,Lauren Clements,Richard Harris,29.84576,-90.10674,Estelle,US,Chicago,False,False,True,unhappy
203,2004-06-11,2004-08-08,Leah Hutchinson,Laura Oconnor,41.27621,-72.86843,East Haven,US,New York,True,True,False,paranoid
204,1991-11-17,1991-12-19,Joseph Mcintosh,Lauren Smith,40.5576,-74.28459,Woodbridge,US,New York,False,True,True,unhappy
205,2002-05-06,2002-07-04,Barbara Moore,Nicole Hinton,-19.72806,-50.19556,Iturama,BR,Sao Paulo,True,False,True,talkative
206,2005-03-16,2005-03-28,Bryan Wright,Micheal Thomas,39.45621,-77.96389,Martinsburg,US,New York,False,True,True,complaining
207,1997-04-12,1997-05-02,Christian Brown,Kurt Clark,43.16547,-77.70066,Gates-North Gates,US,New York,False,False,True,hostile
208,2019-05-29,2019-07-02,Andrew Lyons,Casey Weber,5.20856,-74.73584,Honda,CO,Bogota,False,True,True,fleeing
209,2000-08-08,2000-09-13,Bruce Gutierrez,Sara Chavez,32.35126,-95.30106,Tyler,US,Chicago,False,True,True,happy
210,2017-03-24,2017-04-17,Linda Atkinson,Eugene Brown,38.17492,-122.2608,American Canyon,US,Los Angeles,False,False,False,accusatory
211,1999-04-15,1999-05-08,Eric Armstrong,David Richardson,33.76446,-117.79394,North Tustin,US,Los Angeles,False,False,True,accusatory
212,1991-08-20,1991-10-08,Jeffrey Kemp,Caleb Cook,40.65995,-111.99633,Kearns,US,Denver,False,True,True,sad
213,2001-12-10,2002-01-23,Charles Lucas,Jeffery Weaver,33.03699,-117.29198,Encinitas,US,Los Angeles,False,True,True,tense
214,1990-10-16,1990-12-07,Gary Mendoza,Kevin Contreras,45.0408,-93.263,Columbia Heights,US,Chicago,False,False,True,confessing
215,1987-04-01,1987-04-23,William Horne,Rebecca Russell,13.48082,-86.58208,Somoto,NI,Managua,False,True,True,friendly
216,1988-10-06,1988-10-31,Michelle Cherry,Matthew Brown,42.30865,-83.48216,Canton,US,Detroit,False,True,False,unhappy
217,1987-02-02,1987-03-17,Christina Ramsey,Garrett Lawrence,17.06542,-96.72365,Oaxaca,MX,Mexico City,False,False,True,over-complimenting
218,2017-03-07,2017-03-20,Kelsey Jones,Vincent Cooper,39.43534,-84.20299,Lebanon,US,New York,False,True,True,happy
219,1991-01-18,1991-02-23,Gary Combs,Brandi Jones,10.15031,-73.9614,El Copey,CO,Bogota,False,True,True,injured
220,2008-06-16,2008-07-14,Mark Smith,Michael Woods,42.52787,-70.92866,Peabody,US,New York,False,True,True,happy
221,1991-12-06,1992-01-28,Abigail Howard,Jennifer George,32.5007,-94.74049,Longview,US,Chicago,False,True,True,sad
222,2017-08-14,2017-10-12,Deborah Schwartz,Mr. Rodney Franco,13.48082,-86.58208,Somoto,NI,Managua,False,True,False,happy
223,1990-07-12,1990-08-30,Valerie Stephens,Sonia Mcdaniel,19.04222,-98.11889,Casa Blanca,MX,Mexico City,False,True,True,insulting
224,2003-12-09,2004-01-13,Jonathan Levine,Phillip Quinn,17.94979,-94.91386,Acayucan,MX,Mexico City,False,True,True,fleeing
225,1996-09-26,1996-10-24,Donald Schwartz,William Gallagher,44.73941,-93.12577,Rosemount,US,Chicago,False,True,True,fleeing
226,2020-12-25,2021-02-21,Andrea Randolph,Jared Reid,28.15112,-82.46148,Lutz,US,New York,False,True,False,lonely
227,1989-07-04,1989-08-17,Christopher Jones IV,Michael Barron,-2.13404,-79.59415,Milagro,EC,Guayaquil,False,True,True,silent
228,2011-09-28,2011-11-05,Anne Turner,Jerry Collins,28.15112,-82.46148,Lutz,US,New York,False,False,True,paranoid
229,2000-06-19,2000-06-25,Omar Clark,Sandra Ramos,8.35122,-62.64102,Ciudad Guayana,VE,Caracas,False,False,False,panicking
230,2012-09-09,2012-10-22,Jeffrey Gray,Julia Reynolds,40.68066,-73.47429,Massapequa,US,New York,False,True,True,hostile
231,1992-12-06,1993-01-04,Amy Hamilton,David Zamora,33.52253,-117.70755,Laguna Niguel,US,Los Angeles,False,True,True,injured
232,2004-03-23,2004-05-13,Vincent Rose,Micheal Thomas,8.88988,-79.62603,Veracruz,PA,Panama,False,True,True,complaining
233,1996-01-27,1996-03-12,Scott Eaton,Carla Reyes,26.91756,-82.07842,Punta Gorda Isles,US,New York,False,True,True,scared
234,2013-04-19,2013-06-06,Joshua Mcintyre,Gabrielle Mendez,-23.7975,-48.59278,Buri,BR,Sao Paulo,False,True,False,panicking
235,2010-12-20,2011-01-13,Joy Williams,Karen Nguyen,4.73245,-74.26419,Madrid,CO,Bogota,False,True,True,silent
236,2016-03-01,2016-03-27,Jessica Hayes,Timothy Davis,33.72255,-116.37697,Palm Desert,US,Los Angeles,False,False,True,over-complimenting
237,2008-05-21,2008-07-19,Ann Campbell,Jacqueline Maldonado,-21.41222,-42.19667,Miracema,BR,Sao Paulo,False,False,True,lonely
238,1987-03-14,1987-05-10,Jennifer Grant,Gregory Hanson,18.20854,-71.10077,Santa Cruz de Barahona,DO,Santo Domingo,False,False,True,insulting
239,1989-12-05,1989-12-22,Laura Moreno,David Wagner,39.33427,-76.43941,Middle River,US,New York,False,True,True,unhappy
240,1994-01-15,1994-01-27,Chase Stewart,David Richardson,19.04222,-98.11889,Casa Blanca,MX,Mexico City,False,True,True,insulting
241,2008-08-20,2008-09-30,Jeffrey Campbell,John Barr,-25.42778,-49.27306,Curitiba,BR,Sao Paulo,False,True,True,paranoid
242,1992-06-27,1992-08-10,Mr. Thomas Copeland,Jacob Carlson,-25.42944,-50.00639,Palmeira,BR,Sao Paulo,False,True,True,oblivious
243,2022-04-15,2022-05-04,Deanna Day,Ashley Vaughn,43.61062,-72.97261,Rutland,US,New York,False,True,True,oblivious
244,1999-03-26,1999-05-18,Crystal Evans,Theresa Patterson,-21.42917,-45.94722,Alfenas,BR,Sao Paulo,False,False,True,insulting
245,1993-05-15,1993-05-22,Kristin Anderson,Nicole Payne,9.92787,-84.13722,San Rafael,CR,Costa Rica,False,True,True,confessing
246,2020-02-25,2020-03-11,Deborah Evans,Kendra Miller,34.14251,-118.25508,Glendale,US,Los Angeles,False,False,True,silent
247,2015-11-14,2015-12-22,Teresa Martin,Garrett Martinez,40.60538,-73.75513,Far Rockaway,US,New York,False,True,True,silent
248,2010-03-25,2010-05-07,Valerie Wilson,Nicholas Powell,35.25064,-91.73625,Searcy,US,Chicago,False,False,True,oblivious
249,2016-08-29,2016-09-04,Raymond Stout,Jacob Santiago,41.6764,-91.58045,Coralville,US,Chicago,False,True,False,accusatory
250,1995-05-16,1995-06-30,Robert Brown,Erin Ray,41.15376,-87.88754,Bourbonnais,US,Chicago,True,True,True,out-of-control
251,2016-02-17,2016-03-19,Ashley Garcia,Jessica Rogers,49.88307,-119.48568,Kelowna,CA,Vancouver,False,True,True,evasive
252,2011-04-04,2011-04-13,Elizabeth Allen,Kevin Martin,18.20854,-71.10077,Santa Cruz de Barahona,DO,Santo Domingo,False,False,True,panicking
253,2009-01-21,2009-03-17,Katherine Coleman,James Kennedy,-28.24,-48.67028,Imbituba,BR,Sao Paulo,False,True,True,panicking
254,1987-02-14,1987-04-02,Charles Washington,Joseph Arellano,17.06542,-96.72365,Oaxaca,MX,Mexico City,False,False,False,out-of-control
255,2003-03-17,2003-04-14,Sherri Oconnell,Jeffrey Bush,-22.92306,-53.13722,Loanda,BR,Sao Paulo,False,False,True,fleeing
256,1994-06-23,1994-08-03,Joshua Johnson DDS,Jason Berg,30.16688,-96.39774,Brenham,US,Chicago,False,False,True,unhappy
257,2000-04-27,2000-05-20,Misty Marquez,Lori Lowery,41.57721,-93.71133,West Des Moines,US,Chicago,False,True,True,oblivious
258,2021-03-18,2021-03-31,Randy Graham,Rachel Barnes,41.84364,-87.71255,South Lawndale,US,Chicago,True,False,True,friendly
259,2006-05-09,2006-06-14,Pamela Acosta,Amber Wright,-10.90889,-37.03861,Barra dos Coqueiros,BR,Maceio,False,True,True,panicking
260,2001-07-04,2001-07-21,Emily Rangel,David Zamora,-10.90889,-37.03861,Barra dos Coqueiros,BR,Maceio,False,True,False,evasive
261,2004-03-12,2004-03-27,Terry Freeman,Randy Simmons,36.20829,-115.98391,Pahrump,US,Los Angeles,True,False,True,friendly
262,2001-10-12,2001-12-04,Leah Porter,Mr. Rodney Franco,18.65297,-72.09391,Thomazeau,HT,Port-au-Prince,False,False,True,happy
263,2011-02-09,2011-04-07,Douglas Roberts,Matthew Brown,36.02506,-86.77917,Brentwood Estates,US,Chicago,True,True,True,out-of-control
264,1999-10-17,1999-11-25,Frederick Vargas,Brandon Miller,23.0072,-82.4017,Boyeros,CU,Havana,False,False,True,injured
265,1987-04-02,1987-04-04,Eric Hoffman,Joshua Moore,19.32932,-98.1664,Contla,MX,Mexico City,False,True,True,friendly
266,2013-10-03,2013-10-29,Elizabeth Ferrell,Christopher Ross,17.06542,-96.72365,Oaxaca,MX,Mexico City,False,False,True,tense
267,2013-02-16,2013-03-24,Anthony Cook,Cynthia Carr,-36.9256,-73.02841,Chiguayante,CL,Santiago,True,False,True,scared
268,2013-11-06,2013-11-07,Jerome Miller,Austin Williams,-22.92306,-53.13722,Loanda,BR,Sao Paulo,False,True,True,scared
269,2015-06-08,2015-07-01,Michael Soto,Loretta Wood,34.63915,-120.45794,Lompoc,US,Los Angeles,False,True,True,tense
270,1995-05-23,1995-07-13,Adrian Santos,Elizabeth Cooper,34.14251,-118.25508,Glendale,US,Los Angeles,False,False,True,oblivious
271,2006-02-16,2006-03-11,Ashley Evans,Jessica Rogers,38.96372,-76.99081,Chillum,US,New York,True,True,True,insulting
272,2003-01-09,2003-01-21,Sheena Dillon,Lori Lowery,42.93369,-72.27814,Keene,US,New York,False,True,True,injured
273,2006-05-17,2006-07-04,Brendan King,John Hayes,41.66394,-83.55521,Toledo,US,New York,False,False,True,panicking
274,1988-09-12,1988-10-02,Leslie Murray,Alicia Harper,35.88264,-80.08199,Thomasville,US,New York,False,True,True,hostile
275,1986-02-09,1986-02-25,Michael Cobb,Nicole Scott,-25.42944,-50.00639,Palmeira,BR,Sao Paulo,False,False,True,oblivious
276,2004-06-24,2004-08-04,Sheila Garrison,Alan Ford,-14.66463,-52.35558,Nova Xavantina,BR,Cuiaba,False,True,True,over-complimenting
277,1997-03-26,1997-05-18,Victoria Anderson,Dawn Simmons,38.06084,-97.92977,Hutchinson,US,Chicago,False,False,True,evasive
278,2020-10-31,2020-12-07,Elizabeth Brown,Gregory Moore,41.72059,-87.70172,Evergreen Park,US,Chicago,False,False,True,scared
279,1992-09-09,1992-10-17,Sarah Perry,Anthony Harris,9.91861,-68.30472,Tinaquillo,VE,Caracas,True,True,True,injured
280,1992-11-17,1993-01-06,Ronald Benton,Charles Walls,-23.44361,-51.87389,Sarandi,BR,Sao Paulo,True,False,True,insulting
281,2016-09-17,2016-09-29,Robert Bush,Brooke Crawford,35.74788,-95.36969,Muskogee,US,Chicago,False,False,True,panicking
282,1997-02-26,1997-03-24,Angel Wilcox,Jessica Conway,40.67705,-73.89125,Cypress Hills,US,New York,False,False,True,evasive
283,2004-06-04,2004-06-15,Margaret Taylor,Brett Scott,34.25807,-88.70464,Tupelo,US,Chicago,False,True,True,over-complimenting
284,2005-10-18,2005-12-01,Steven Torres,Melinda Soto,-19.7625,-44.31389,Esmeraldas,BR,Sao Paulo,False,False,True,panicking
285,2011-06-27,2011-07-07,Gregory Scott,Sheri Chapman,-8.05389,-34.88111,Recife,BR,Recife,False,True,True,scared
286,2012-10-29,2012-11-06,Kylie Watts,Holly Chapman,42.30865,-83.48216,Canton,US,Detroit,False,False,True,scared
287,1996-02-19,1996-04-16,Kendra Moore,Kendra Miller,49.88307,-119.48568,Kelowna,CA,Vancouver,False,True,True,silent
288,1994-08-12,1994-09-28,Katie Velez,Tanya Conley,41.6764,-91.58045,Coralville,US,Chicago,False,True,True,hostile
289,2008-07-25,2008-07-26,Shelly Boyer,Scott Nixon,33.03699,-117.29198,Encinitas,US,Los Angeles,False,True,True,accusatory
290,1992-10-18,1992-10-27,Kathleen Shaw,Brian Thomas,42.52787,-70.92866,Peabody,US,New York,False,False,True,happy
291,1991-07-11,1991-08-26,Danielle Myers,Denise Park,32.44874,-99.73314,Abilene,US,Chicago,False,False,True,fleeing
292,1996-02-13,1996-03-01,Mrs. Jessica Brown MD,Donald Miller,20.74122,-100.44843,Santa Rosa Jauregui,MX,Mexico City,False,True,True,happy
293,2001-08-21,2001-09-03,Stacey Burns,Richard Harris,-2.90055,-79.00453,Cuenca,EC,Guayaquil,False,True,True,friendly
294,2014-05-15,2014-05-30,Jeffrey Carson,Charles Walls,46.09273,-88.64235,Iron River,US,Menominee,False,False,True,hostile
295,2018-01-06,2018-01-08,Joshua Larsen,Dawn Simmons,26.68451,-80.66756,Belle Glade,US,New York,False,False,True,accusatory
296,2002-12-27,2003-02-02,Christopher Medina,Todd Robinson,28.15112,-82.46148,Lutz,US,New York,False,False,True,injured
297,2011-11-03,2011-12-08,Deborah Moss,David Strong,41.47892,-87.45476,Schererville,US,Chicago,False,False,True,over-complimenting
298,1996-04-23,1996-06-16,Jeffrey Baker,Laura Oconnor,27.09978,-82.45426,Venice,US,New York,False,True,True,scared
299,2002-02-22,2002-04-07,Elizabeth Jones,Cynthia Carr,18.57677,-72.22625,Croix-des-Bouquets,HT,Port-au-Prince,False,False,True,out-of-control
300,1999-11-09,1999-12-24,Mr. David Garza,Rebecca Russell,45.49428,-122.86705,Aloha,US,Los Angeles,False,True,True,lonely
301,1993-06-18,1993-08-02,Teresa Roach,Mary Weaver,-20.87306,-48.29694,Viradouro,BR,Sao Paulo,False,True,True,unhappy
302,1996-11-23,1996-12-06,Chad Wright,Nicole Hinton,39.32288,-76.72803,Woodlawn,US,New York,False,True,True,worried
303,2006-01-06,2006-02-08,Jessica Dunn,Laura Cook,26.18924,-98.15529,San Juan,US,Chicago,False,True,True,scared
304,2000-09-02,2000-09-18,Benjamin Delgado,Rebecca Russell,45.49428,-122.86705,Aloha,US,Los Angeles,False,False,True,confessing
305,2005-11-02,2005-11-03,Joel Lewis,Karen Weber,38.70734,-77.02303,Fort Washington,US,New York,False,True,True,injured
306,1990-01-13,1990-03-09,Michele Ferguson,Diana Torres,36.61033,-88.31476,Murray,US,Chicago,False,True,True,silent
307,2018-02-03,2018-02-15,Rebecca Burton,Katelyn Garcia,39.71734,-74.96933,Sicklerville,US,New York,False,True,True,fleeing
308,2009-11-30,2009-12-06,Kyle Dillon,Kimberly Perez,49.88307,-119.48568,Kelowna,CA,Vancouver,False,True,True,evasive
309,2015-04-04,2015-05-30,Jessica Oliver,Rachel Lucas,34.14251,-118.25508,Glendale,US,Los Angeles,False,True,True,insulting
310,2012-10-15,2012-11-22,Rebecca Moses,Megan West,7.83389,-72.47417,Villa del Rosario,CO,Bogota,False,True,True,unhappy
311,2010-11-30,2010-12-15,Danielle Thompson,Chris Campbell Jr.,41.80753,-87.65644,New City,US,Chicago,False,True,True,over-complimenting
312,2017-10-08,2017-10-14,Michael Morris,Jeremy Moran,23.15678,-81.24441,Varadero,CU,Havana,False,True,True,talkative
313,2016-07-17,2016-08-04,Christine Davis MD,Angelica Chan,10.22677,-67.33122,La Victoria,VE,Caracas,True,True,True,confessing
314,1998-11-10,1998-12-22,Elizabeth Duncan,James Bryant,41.84364,-87.71255,South Lawndale,US,Chicago,False,True,True,hostile
315,2018-07-04,2018-08-30,Philip Cummings MD,Charles Walls,22.49396,-105.36369,Acaponeta,MX,Mazatlan,False,True,True,over-complimenting
316,2006-09-17,2006-11-05,Angela Knight,Rita Johnson,32.9156,-117.14392,Mira Mesa,US,Los Angeles,False,True,True,lonely
317,1997-12-21,1998-02-04,Sabrina Fuller,Monica Davis,36.91023,-121.75689,Watsonville,US,Los Angeles,False,False,True,over-complimenting
318,1995-02-01,1995-03-03,Richard Wright,Emily Brown,4.73245,-74.26419,Madrid,CO,Bogota,False,True,True,unhappy
319,2019-09-13,2019-09-25,Nicholas Watson,Robert Arellano,15.48131,-86.57415,Olanchito,HN,Tegucigalpa,False,True,True,tense
320,2018-01-08,2018-01-11,Paul Houston,Jorge Novak,-19.72806,-50.19556,Iturama,BR,Sao Paulo,True,True,True,injured
321,2021-03-21,2021-04-01,Gregory Callahan,Diana Torres,-28.24,-48.67028,Imbituba,BR,Sao Paulo,False,True,True,over-complimenting
322,2009-12-19,2010-02-08,Christopher Wright,Matthew Chavez,5.6561,-75.87877,Andes,CO,Bogota,False,True,True,accusatory
323,2016-09-06,2016-09-29,Joshua Brown,Justin White,-17.74431,-48.62789,Caldas Novas,BR,Sao Paulo,False,True,True,evasive
324,1997-12-27,1998-01-25,Cynthia Smith,Tracy Blackwell,11.84962,-86.19903,Jinotepe,NI,Managua,True,True,True,evasive
325,2013-07-05,2013-08-26,Ruben Klein,Leslie Anderson,-8.76194,-63.90389,Porto Velho,BR,Porto Velho,True,True,True,accusatory
326,2000-09-25,2000-11-04,Philip Smith,Angelica Chan,10.98778,-74.95472,Puerto Colombia,CO,Bogota,False,False,True,over-complimenting
327,2002-07-23,2002-08-29,Cody Armstrong,Larry King,32.44874,-99.73314,Abilene,US,Chicago,False,False,False,sad
328,2013-05-24,2013-07-11,Brandon Johnson,Kim Dyer,-23.44361,-51.87389,Sarandi,BR,Sao Paulo,True,True,True,insulting
329,1993-08-24,1993-10-03,Shane Barnett,Joseph Arellano,40.72371,-73.95097,Greenpoint,US,New York,False,True,True,paranoid
330,2005-06-10,2005-06-15,Amanda Lee,Joseph Moore DVM,-23.44361,-51.87389,Sarandi,BR,Sao Paulo,False,True,False,sad
331,2007-10-26,2007-11-24,Pamela Mann,David Richardson,-19.32556,-41.25528,Resplendor,BR,Sao Paulo,False,False,True,sad
332,2015-07-23,2015-09-01,Adam Acosta,Vanessa Chapman,39.32288,-76.72803,Woodlawn,US,New York,False,False,True,out-of-control
333,2021-03-17,2021-04-11,Marie Santos,Todd Robinson,43.54072,-116.56346,Nampa,US,Boise,False,True,True,scared
334,2001-08-31,2001-10-01,Hailey Kim,Linda Edwards,7.83389,-72.47417,Villa del Rosario,CO,Bogota,False,True,True,oblivious
335,1996-02-17,1996-03-21,Lisa Hernandez,Jennifer Shannon,-15.675,-38.94722,Canavieiras,BR,Bahia,False,True,True,oblivious
336,2017-02-23,2017-04-09,Mario Powell,Justin Whitehead,40.72371,-73.95097,Greenpoint,US,New York,False,False,True,evasive
337,2015-04-25,2015-05-03,Miranda Campbell,Leslie Anderson,33.72255,-116.37697,Palm Desert,US,Los Angeles,False,True,True,confessing
338,2017-03-12,2017-03-13,William Hunter,William Wood,44.27804,-88.27205,Kaukauna,US,Chicago,False,True,False,silent
339,2005-06-04,2005-07-08,Brianna Richardson,Brandy White,18.57677,-72.22625,Croix-des-Bouquets,HT,Port-au-Prince,False,True,True,injured
340,2015-08-05,2015-10-03,Cameron Peters,Joshua Curtis,-22.53722,-42.98194,Guapimirim,BR,Sao Paulo,False,True,True,sad
341,2019-01-09,2019-03-02,Angela Rodriguez,Chloe Harris,18.20854,-71.10077,Santa Cruz de Barahona,DO,Santo Domingo,False,True,True,talkative
342,2008-11-25,2008-12-21,Glenn Johnson,Marie Hill,40.82232,-74.15987,Nutley,US,New York,False,False,False,friendly
343,1995-07-07,1995-08-24,Elizabeth Owens,Cynthia Carr,40.58654,-122.39168,Redding,US,Los Angeles,False,True,True,insulting
344,2018-11-09,2018-12-09,Deborah Johnson,Amy Gomez,-34.74785,-58.70072,Pontevedra,AR,Argentina,False,False,True,over-complimenting
345,2021-02-17,2021-02-27,Lisa Wells DDS,Brett Wood,39.32011,-76.51552,Rosedale,US,New York,False,False,True,tense
346,1985-05-21,1985-07-16,Michael Jones,Eugene Brown,43.86682,-79.2663,Markham,CA,Toronto,False,False,True,worried
347,2014-10-13,2014-11-21,Michelle Phillips,Chad Chandler,37.71715,-122.40433,Visitacion Valley,US,Los Angeles,False,True,True,hostile
348,1993-10-15,1993-11-08,Kenneth Stark,Austin Summers,33.72255,-116.37697,Palm Desert,US,Los Angeles,False,False,True,paranoid
349,2005-08-14,2005-08-14,Sheena Dixon,David Zamora,18.65297,-72.09391,Thomazeau,HT,Port-au-Prince,False,False,True,hostile
350,2008-12-11,2009-01-24,Carlos West,Kevin Martin,-28.44917,-52.2,Marau,BR,Sao Paulo,False,False,True,scared
351,2020-05-20,2020-06-07,Curtis Flores,Jeremy Mason,41.80753,-87.65644,New City,US,Chicago,False,False,True,evasive
352,1991-07-03,1991-07-04,Daniel Medina,Jesse Boyd,41.47892,-87.45476,Schererville,US,Chicago,False,False,True,confessing
353,2020-06-03,2020-06-07,Lisa Nunez,Chloe Harris,-22.57306,-47.1725,Artur Nogueira,BR,Sao Paulo,False,True,True,talkative
354,2009-11-12,2010-01-02,Jennifer Frederick,Theresa Patterson,40.34912,-111.90466,Saratoga Springs,US,Denver,False,True,True,sad
355,1998-05-23,1998-06-24,Jenna Hurst,Michael Webb,-4.16694,-40.7475,Guaraciaba do Norte,BR,Fortaleza,False,True,True,worried
356,1994-06-20,1994-06-20,James Coleman,Diana Torres,40.82232,-74.15987,Nutley,US,New York,False,True,True,sad
357,1993-08-31,1993-10-13,Cassidy Howard,Nancy White,34.14251,-118.25508,Glendale,US,Los Angeles,False,False,True,happy
358,2021-09-19,2021-11-15,Jennifer Wall MD,Jasmine Rowland,41.80753,-87.65644,New City,US,Chicago,False,False,True,out-of-control
359,1987-08-10,1987-10-04,Sarah Chavez,Robert Jenkins,43.54072,-116.56346,Nampa,US,Boise,False,True,True,oblivious
360,1993-12-27,1993-12-29,Kelly Reyes,Michelle Lee,-15.675,-38.94722,Canavieiras,BR,Bahia,False,True,True,over-complimenting
361,2001-04-28,2001-05-21,Heather Mejia,Nicole Scott,-21.44345,-65.71875,Tupiza,BO,La Paz,False,True,True,unhappy
362,1999-11-02,1999-11-11,Sandra Quinn,Ryan Wilkinson,41.0051,-73.78458,Scarsdale,US,New York,False,True,True,hostile
363,1989-12-15,1990-01-15,Robert Henry,Vincent Cooper,33.45122,-86.99666,Hueytown,US,Chicago,True,True,True,evasive
364,1992-04-11,1992-05-28,Shawn Duncan,Nathaniel Jackson,-21.44345,-65.71875,Tupiza,BO,La Paz,False,False,True,lonely
365,1998-01-04,1998-02-06,Becky Barrett,Ashley Howell,38.54491,-121.74052,Davis,US,Los Angeles,False,True,True,over-complimenting
366,2021-04-17,2021-05-20,Daniel Smith,Richard Reyes,39.57582,-105.11221,Ken Caryl,US,Denver,False,False,True,friendly
367,2015-06-03,2015-07-19,Jonathan Hale,Joshua Moore,34.21639,-119.0376,Camarillo,US,Los Angeles,True,True,True,sad
368,1999-11-30,1999-12-23,Allen Garner,Veronica Richards,34.63915,-120.45794,Lompoc,US,Los Angeles,False,True,True,friendly
369,2006-11-13,2006-12-30,Miranda Parker,Timothy Williams,43.54072,-116.56346,Nampa,US,Boise,False,False,True,sad
370,2007-06-05,2007-06-27,Sandra Holder,Laura Parks,42.8334,-80.38297,Norfolk County,CA,Toronto,False,True,True,fleeing
371,2021-03-05,2021-04-08,Amanda Johnson,Valerie Griffin,19.32932,-98.1664,Contla,MX,Mexico City,False,True,True,sad
372,1992-07-16,1992-08-19,Eugene Walters,Meghan Owens,40.93121,-73.89875,Yonkers,US,New York,False,False,True,fleeing
373,2013-10-01,2013-10-24,Erin Moody,Candice Johnson,26.18924,-98.15529,San Juan,US,Chicago,False,True,True,over-complimenting
374,2003-06-12,2003-06-13,Dakota Williams,Donna Mathis,41.27621,-72.86843,East Haven,US,New York,False,True,True,happy
375,1992-02-04,1992-03-28,Diana Combs,James Kennedy,27.09978,-82.45426,Venice,US,New York,False,True,True,panicking
376,1993-11-13,1993-12-04,Tiffany Torres,Kathleen Castro,-19.72806,-50.19556,Iturama,BR,Sao Paulo,False,True,True,worried
377,2012-07-08,2012-09-01,Mrs. Candace Villegas,Jeanette Best,33.03699,-117.29198,Encinitas,US,Los Angeles,False,True,True,sad
378,2003-09-25,2003-09-25,Christine Smith,Rose Reed,30.16688,-96.39774,Brenham,US,Chicago,True,True,True,oblivious
379,2016-05-18,2016-06-15,Jacqueline Wright,Emily Santana,40.93121,-73.89875,Yonkers,US,New York,False,True,True,confessing
380,2016-10-13,2016-10-29,Kristen Diaz,Andrew Miranda,-10.91722,-37.65,Lagarto,BR,Maceio,False,False,False,out-of-control
381,2001-04-03,2001-05-17,Scott Cook,Nicole Adams,-27.4338,-65.61427,Aguilares,AR,Argentina,False,True,True,panicking
382,1989-01-12,1989-01-17,Jennifer Barker,Pamela Gonzales,-4.24444,-42.29444,Barras,BR,Fortaleza,True,False,True,unhappy
383,2018-08-03,2018-09-25,Nathan Crawford,Michelle Lee,6.46838,-73.26022,Socorro,CO,Bogota,False,True,True,silent
384,2015-07-22,2015-08-09,Victoria Ford,Mr. Shannon Sharp,22.49396,-105.36369,Acaponeta,MX,Mazatlan,False,False,True,confessing
385,2016-07-02,2016-07-06,Joe Arnold,Joseph Nguyen,34.06635,-84.67837,Acworth,US,New York,False,True,True,friendly
386,2017-03-15,2017-03-29,Eric Graham,Nicholas Rowe,-14.66463,-52.35558,Nova Xavantina,BR,Cuiaba,False,True,True,confessing
387,1991-04-28,1991-06-04,Kimberly Brandt,Kevin Martin,20.28527,-103.42897,Jocotepec,MX,Mexico City,False,False,True,confessing
388,1991-01-12,1991-02-08,Barbara Allison,Nicole Rogers,28.90054,-81.26367,Deltona,US,New York,False,True,True,confessing
389,2018-08-14,2018-09-14,Michael Hoffman,Joshua Reed,20.74122,-100.44843,Santa Rosa Jauregui,MX,Mexico City,False,False,True,scared
390,1999-08-03,1999-08-13,Tony Perez,Cynthia Carr,34.77453,-96.67834,Ada,US,Chicago,False,False,True,insulting
391,2012-05-07,2012-05-08,Frank Gomez,Ernest Spencer,10.63504,-85.43772,Liberia,CR,Costa Rica,False,True,True,confessing
392,1997-07-01,1997-07-07,Catherine Duran,Hannah Lindsey,42.35843,-71.05977,Boston,US,New York,False,True,True,accusatory
393,2001-06-19,2001-07-11,Linda Wagner,Garrett Allen,41.80753,-87.65644,New City,US,Chicago,False,True,True,out-of-control
394,1991-01-26,1991-02-03,Ann Dyer,Dean Martinez,39.00622,-77.4286,Sterling,US,New York,False,True,True,tense
395,2013-04-22,2013-04-29,Jason Jordan,Charles Leonard,-22.92306,-53.13722,Loanda,BR,Sao Paulo,True,True,True,confessing
396,1990-02-20,1990-03-15,Jonathan Allen MD,Annette Barrett,18.00747,-76.78319,New Kingston,JM,Jamaica,False,False,True,talkative
397,1998-12-20,1999-01-03,Zachary Golden,Kevin Martin,9.15093,-79.62098,Chilibre,PA,Panama,False,True,True,insulting
398,2004-12-15,2004-12-21,Jaime Butler,Brittany Henderson,-22.53722,-42.98194,Guapimirim,BR,Sao Paulo,False,True,False,fleeing
399,1995-08-23,1995-09-14,Dawn Duncan,Randy Simmons,33.95015,-118.03917,South Whittier,US,Los Angeles,False,True,True,unhappy
400,2010-11-12,2010-12-08,Tara Peterson,Jared Reid,40.57788,-73.95958,Brighton Beach,US,New York,True,True,False,fleeing
401,2011-12-28,2012-01-12,Frances Garcia,Darrell Crawford,-3.14306,-58.44417,Itacoatiara,BR,Manaus,False,True,True,friendly
402,1997-06-22,1997-06-30,Justin Flynn,Linda Edwards,-14.66463,-52.35558,Nova Xavantina,BR,Cuiaba,False,True,True,worried
403,2003-10-26,2003-10-29,Crystal Marshall,Kevin Contreras,45.49428,-122.86705,Aloha,US,Los Angeles,False,True,True,worried
404,2014-12-01,2015-01-13,Elizabeth Odonnell,Jane Huff,37.52487,-77.55777,Bon Air,US,New York,True,False,True,worried
405,1999-08-23,1999-09-13,Travis Collier,James Williams,36.61033,-88.31476,Murray,US,Chicago,False,False,True,fleeing
406,1991-10-31,1991-11-03,Ronald Parker Jr.,Kimberly Stewart,42.7392,-84.62081,Waverly,US,Detroit,False,True,True,tense
407,1986-04-27,1986-06-10,Amy Mason,Michael Smith,-14.66463,-52.35558,Nova Xavantina,BR,Cuiaba,False,False,True,out-of-control
408,1993-08-22,1993-10-12,Roger Camacho,Kaitlyn Johns,26.18924,-98.15529,San Juan,US,Chicago,False,False,True,confessing
409,1995-02-23,1995-04-15,Suzanne Cain,Brendan Love,13.48082,-86.58208,Somoto,NI,Managua,False,True,True,confessing
410,2006-10-28,2006-11-09,Matthew Holmes,Belinda Thompson,19.32932,-98.1664,Contla,MX,Mexico City,False,False,True,panicking
411,2006-10-31,2006-11-20,Jamie Barton,Karen Keller MD,41.75338,-86.11084,Granger,US,Indiana,False,False,True,injured
412,1987-12-01,1988-01-13,Steven Watson,Jeffery Weaver,22.98212,-80.58556,Corralillo,CU,Havana,False,True,True,talkative
413,2010-08-29,2010-09-15,Daniel Mccoy,Judith Meyer,33.44872,-86.78777,Vestavia Hills,US,Chicago,False,False,True,silent
414,1991-12-25,1992-02-06,Brian Mendoza,Brittany Henderson,40.81,-73.9625,Morningside Heights,US,New York,False,True,True,complaining
415,2021-05-23,2021-06-29,Keith Peck,Robert Maxwell,-22.45667,-47.53028,Santa Gertrudes,BR,Sao Paulo,False,False,True,over-complimenting
416,1989-10-07,1989-10-30,Larry Henderson,Dr. Crystal Mccormick,29.65163,-82.32483,Gainesville,US,New York,False,True,True,accusatory
417,2012-04-22,2012-04-23,Courtney Ramirez,Linda Porter DVM,-15.675,-38.94722,Canavieiras,BR,Bahia,False,False,True,over-complimenting
418,2000-12-24,2001-01-18,Kaylee Kennedy,Thomas Hamilton,10.63504,-85.43772,Liberia,CR,Costa Rica,False,True,True,evasive
419,2011-10-17,2011-11-07,Charles Cox,Cristina Reynolds,18.42745,-67.15407,Aguadilla,PR,Puerto Rico,True,True,True,silent
420,2015-12-16,2016-01-24,John Underwood,Eddie Hall,-23.7975,-48.59278,Buri,BR,Sao Paulo,True,False,True,unhappy
421,1986-05-24,1986-05-28,Peter Combs,Jessica Conway,33.92946,-116.97725,Beaumont,US,Los Angeles,False,False,True,lonely
422,1994-07-16,1994-08-20,Kathryn Silva,Todd Robinson,40.56754,-89.64066,Pekin,US,Chicago,False,True,True,confessing
423,1994-11-24,1994-12-30,Barbara Gibson,Terry Erickson,20.21322,-100.88023,Salvatierra,MX,Mexico City,False,True,True,lonely
424,2021-10-04,2021-10-23,Patrick Wilson,Michael Sims,46.09273,-88.64235,Iron River,US,Menominee,False,False,True,friendly
425,1996-09-25,1996-11-03,Lindsay Page,Ashley Howell,-17.74431,-48.62789,Caldas Novas,BR,Sao Paulo,False,True,True,confessing
426,1997-02-21,1997-03-18,Timothy Livingston,Mackenzie Gilbert,-33.38056,-56.52361,Durazno,UY,Montevideo,False,False,True,lonely
427,2018-10-01,2018-11-28,Kristin Holland,James Whitehead,-22.97056,-46.99583,Valinhos,BR,Sao Paulo,False,True,True,over-complimenting
428,2022-02-13,2022-03-13,Kurt Robinson,Maurice Mccarthy,41.14676,-73.49484,New Canaan,US,New York,False,True,False,talkative
429,2011-03-11,2011-04-05,Nathan Lee,Patricia Perez,21.01858,-101.2591,Guanajuato,MX,Mexico City,False,True,True,hostile
430,2004-10-07,2004-11-04,Megan Young,Allen Baker,42.24113,-88.3162,Crystal Lake,US,Chicago,True,True,True,friendly
431,2012-04-03,2012-04-17,Mark Cook,Nicholas Powell,31.76212,-95.63079,Palestine,US,Chicago,False,True,True,paranoid
432,1989-05-15,1989-06-03,Nichole Barrett,Misty Marshall,41.48199,-81.79819,Lakewood,US,New York,False,True,True,injured
433,1998-05-12,1998-06-02,William Murillo,Meredith Gibbs,9.15093,-79.62098,Chilibre,PA,Panama,False,False,True,happy
434,1992-06-07,1992-08-01,Tracy English,Michael Smith,46.1351,-60.1831,Sydney,CA,Glace Bay,False,True,True,silent
435,2014-07-14,2014-07-25,John Martinez,Lucas Kirk,40.64621,-73.97069,Kensington,US,New York,False,True,True,silent
436,2011-01-17,2011-02-10,Dawn Clark,Monica Davis,44.99012,-123.02621,Keizer,US,Los Angeles,False,False,True,paranoid
437,1989-10-21,1989-10-29,Joshua Galvan,Brandy Mendez,41.24255,-82.61573,Norwalk,US,New York,True,False,True,out-of-control
438,2020-08-08,2020-08-09,Zachary Kane,Mark Williams,4.73245,-74.26419,Madrid,CO,Bogota,True,True,False,tense
439,2011-03-19,2011-04-02,Alexandra Johnson,Karen Weber,38.70734,-77.02303,Fort Washington,US,New York,False,False,True,insulting
440,2004-09-01,2004-10-21,Jonathon Heath,Tracy Young,39.45621,-77.96389,Martinsburg,US,New York,True,True,True,confessing
441,1996-09-18,1996-10-20,William Newton,Michael Sims,10.22677,-67.33122,La Victoria,VE,Caracas,True,False,True,silent
442,2019-03-10,2019-03-30,Amber Hernandez,Parker Mitchell,-4.24444,-42.29444,Barras,BR,Fortaleza,False,True,True,sad
443,2022-04-30,2022-05-08,Christopher Lopez,Karen Nguyen,30.16688,-96.39774,Brenham,US,Chicago,False,True,True,hostile
444,2009-07-02,2009-07-06,Donna Martinez,Cathy Durham,20.21322,-100.88023,Salvatierra,MX,Mexico City,False,True,True,insulting
445,1996-09-22,1996-10-20,James Smith,Sarah Brown,36.91023,-121.75689,Watsonville,US,Los Angeles,False,True,True,evasive
446,1996-03-21,1996-04-08,Sabrina Dunn,Mark Ferguson,-8.28333,-35.03333,Cabo,BR,Recife,False,True,True,injured
447,2017-02-20,2017-03-05,Jared Bishop,Dr. John Webb DVM,13.48082,-86.58208,Somoto,NI,Managua,False,True,True,over-complimenting
448,1997-09-27,1997-11-22,Marissa Young,Jamie Price,-29.2975,-51.50361,Carlos Barbosa,BR,Sao Paulo,False,False,True,worried
449,1991-01-11,1991-01-19,Jessica Li,Michael Bailey,-25.42778,-49.27306,Curitiba,BR,Sao Paulo,False,True,True,hostile
450,1998-10-16,1998-12-13,Christina Lowe,Jerry Stephenson,42.35843,-71.05977,Boston,US,New York,False,False,True,lonely
451,1992-05-10,1992-05-18,Lisa Price,Steven Edwards,36.20829,-115.98391,Pahrump,US,Los Angeles,False,True,True,happy
452,2008-04-16,2008-06-05,Kara Kemp,Elizabeth Cooper,8.35122,-62.64102,Ciudad Guayana,VE,Caracas,False,False,True,tense
453,1998-11-01,1998-12-16,Heather Harris,Jerry Erickson,33.35283,-111.78903,Gilbert,US,Phoenix,True,False,False,evasive
454,2017-07-08,2017-07-20,Gregory Bryant,Alvin Alvarez,-31.25033,-61.4867,Rafaela,AR,Argentina,False,True,True,insulting
455,2018-08-10,2018-09-28,Darren Wolfe,Brian Thomas,47.92526,-97.03285,Grand Forks,US,Chicago,False,True,False,scared
456,2004-05-21,2004-06-04,George Yang,Julie Lopez,39.32288,-76.72803,Woodlawn,US,New York,False,True,True,insulting
457,2003-10-09,2003-11-20,Peggy Thomas,Eric Wilson,39.57582,-105.11221,Ken Caryl,US,Denver,True,True,True,tense
458,2002-03-08,2002-03-15,Brian Price,Jordan Torres,40.58654,-122.39168,Redding,US,Los Angeles,True,False,False,sad
459,2015-12-18,2015-12-25,Cory Gray,Jeffery Weaver,18.03496,-66.8499,Yauco,PR,Puerto Rico,False,False,True,talkative
460,2010-04-15,2010-04-19,Dennis Pena,Kayla Klein,35.88264,-80.08199,Thomasville,US,New York,False,True,True,injured
461,2018-08-02,2018-08-29,Mark Lewis,Mary Scott,40.65995,-111.99633,Kearns,US,Denver,False,False,True,worried
462,2010-03-02,2010-04-20,Michael Clark,Daniel Lewis,41.84364,-87.71255,South Lawndale,US,Chicago,False,True,True,talkative
463,2008-09-03,2008-10-30,Gloria Harris,Jane Huff,45.40008,-73.58248,Sainte-Catherine,CA,Toronto,False,True,True,accusatory
464,2013-07-28,2013-09-14,Mrs. Emma Hudson,Gregory Hanson,45.49428,-122.86705,Aloha,US,Los Angeles,False,True,True,oblivious
465,1998-03-07,1998-05-01,Frank Dickson,Laura Oconnor,33.52253,-117.70755,Laguna Niguel,US,Los Angeles,False,False,True,confessing
466,1996-03-27,1996-04-05,Brenda Johnson,Christopher Bell,42.4251,-71.06616,Malden,US,New York,False,True,True,over-complimenting
467,2018-06-25,2018-08-05,Scott Gonzalez,Christian Moore,39.08367,-84.50855,Covington,US,New York,False,False,True,scared
468,2016-06-26,2016-08-24,Samuel Wade,Sonia Mcdaniel,46.23899,-63.13414,Charlottetown,CA,Halifax,True,True,True,tense
469,2017-07-06,2017-08-19,Katherine Young MD,Ms. Sheila Campbell MD,33.54428,-84.23381,Stockbridge,US,New York,False,True,True,insulting
470,1992-09-08,1992-09-19,Janice Diaz DDS,Taylor Robinson,31.84568,-102.36764,Odessa,US,Chicago,True,True,True,over-complimenting
471,1996-11-10,1996-11-26,Ms. Karen Garcia DDS,Tiffany Patrick,31.84568,-102.36764,Odessa,US,Chicago,False,True,True,paranoid
472,2002-01-08,2002-01-23,Kirsten Mendez,Jeremy Moran,33.92946,-116.97725,Beaumont,US,Los Angeles,False,True,True,tense
473,2000-09-01,2000-10-06,Thomas Barker,Loretta Wood,32.44874,-99.73314,Abilene,US,Chicago,False,True,True,talkative
474,2007-02-19,2007-03-04,Brian Perez,Jerry Erickson,29.65163,-82.32483,Gainesville,US,New York,True,False,True,lonely
475,2017-04-30,2017-05-16,Laurie Hernandez,Casey Wheeler,40.63316,-74.13653,Port Richmond,US,New York,False,True,True,accusatory
476,2008-02-06,2008-03-03,Lisa Drake,Anthony Hamilton,41.57721,-93.71133,West Des Moines,US,Chicago,False,True,True,talkative
477,2002-04-21,2002-06-06,Robert Rodriguez,Mr. James Hooper,39.57582,-105.11221,Ken Caryl,US,Denver,False,False,True,insulting
478,1986-03-08,1986-03-31,Jonathan Duncan,Evan Perkins,32.54044,-82.90375,Dublin,US,New York,False,True,True,panicking
479,2016-07-28,2016-07-30,Mallory Allen,Eric Wilson,22.49396,-105.36369,Acaponeta,MX,Mazatlan,False,False,True,panicking
480,1998-09-09,1998-11-02,William Martinez,Robert Merritt,32.52515,-93.75018,Shreveport,US,Chicago,False,True,False,happy
481,1996-06-20,1996-07-01,David Sharp,William Gallagher,21.28306,-89.66123,Progreso,MX,Merida,False,False,True,scared
482,2008-05-05,2008-06-23,Alice Andersen,Michael Barron,40.72816,-74.07764,Jersey City,US,New York,False,True,True,fleeing
483,1988-03-11,1988-04-30,Linda Patton,Jeffery Weaver,-22.53722,-42.98194,Guapimirim,BR,Sao Paulo,False,False,True,injured
484,1988-11-29,1989-01-11,Veronica Price,Wesley Horton,26.91756,-82.07842,Punta Gorda Isles,US,New York,False,False,True,accusatory
485,2016-05-23,2016-06-05,Jill Higgins,Susan Bowers,31.12406,-97.90308,Copperas Cove,US,Chicago,False,True,True,evasive
486,2005-03-29,2005-04-17,Jesse Roach,Robert Merritt,35.25064,-91.73625,Searcy,US,Chicago,False,True,True,worried
487,2002-12-16,2003-01-14,Sonya Andrews,Tracy Blackwell,33.08014,-83.2321,Milledgeville,US,New York,False,True,True,out-of-control
488,2000-09-26,2000-09-29,John Holmes,Daniel Moore,19.8173,-97.35992,Teziutlan,MX,Mexico City,False,True,True,worried
489,2001-07-17,2001-08-03,Jose Clark,Gabriel Jones,41.16704,-73.20483,Bridgeport,US,New York,True,True,False,panicking
490,2013-01-17,2013-02-15,Bradley Bauer,Christopher Bell,13.70167,-89.10944,Ilopango,SV,El Salvador,False,False,True,paranoid
491,2011-10-21,2011-11-29,Brandon Ross,Garrett Cook,41.55838,-81.56929,Collinwood,US,New York,False,True,True,friendly
492,2004-05-19,2004-06-14,Justin Rios,Cathy Durham,40.93121,-73.89875,Yonkers,US,New York,False,False,False,out-of-control
493,2016-06-13,2016-08-01,Jessica Duran,Joseph Moore DVM,47.80527,-122.24064,Bothell West,US,Los Angeles,False,True,True,out-of-control
494,1994-10-06,1994-11-03,Christine Tran,Kendra Mercado,40.81,-73.9625,Morningside Heights,US,New York,False,False,True,sad
495,2005-06-13,2005-08-10,Bryan Smith,Brian Velasquez,30.16688,-96.39774,Brenham,US,Chicago,False,True,True,insulting
496,1988-12-27,1989-02-09,Jacob Chambers,Bryce Alvarado,40.5576,-74.28459,Woodbridge,US,New York,False,True,True,scared
497,1989-11-16,1989-12-01,Edward Preston,Kathryn Martin,8.79577,-75.69947,San Carlos,CO,Bogota,False,True,True,out-of-control
498,2016-10-25,2016-12-07,Larry Carrillo,Shelia Holmes,41.55815,-73.0515,Waterbury,US,New York,False,True,True,scared
499,1991-11-04,1991-11-22,Sarah Cooper,Patricia Williams,45.44868,-73.81669,Pointe-Claire,CA,Toronto,False,True,True,scared
500,2004-04-03,2004-04-18,Dr. Eric Reyes,Hannah Lindsey,29.84576,-90.10674,Estelle,US,Chicago,False,True,True,sad
501,1987-12-06,1988-01-16,Keith Harrison,Rhonda Jones,45.49428,-122.86705,Aloha,US,Los Angeles,False,False,True,confessing
502,1990-04-03,1990-05-16,Crystal Johnston,Denise Park,19.64745,-102.04897,Paracho de Verduzco,MX,Mexico City,False,True,True,panicking
503,1991-01-01,1991-01-21,Nicholas Bowen,Brittany Burnett,39.32011,-76.51552,Rosedale,US,New York,False,True,True,talkative
504,2013-05-30,2013-06-24,Adam Andrews,Lindsey Hoover,41.55815,-73.0515,Waterbury,US,New York,False,True,True,fleeing
505,1993-10-06,1993-12-04,Samuel Reynolds,Shelley Richardson,39.72943,-104.83192,Aurora,US,Denver,False,False,True,lonely
506,2021-10-21,2021-10-27,Chad Hawkins,Nicole Hinton,7.83389,-72.47417,Villa del Rosario,CO,Bogota,False,True,True,out-of-control
507,2001-05-02,2001-05-02,Shawn Tucker,Thomas Hamilton,40.24537,-75.64963,Pottstown,US,New York,False,True,True,silent
508,1997-11-01,1997-11-16,Michael Gill,Candice Johnson,42.58342,-71.8023,Fitchburg,US,New York,False,True,True,complaining
509,1985-10-18,1985-12-14,Susan Smith,Jessica Duran,45.49428,-122.86705,Aloha,US,Los Angeles,False,False,True,silent
510,2007-05-07,2007-06-04,Tracy Lynn,Eugene Brown,47.4943,-122.24092,Bryn Mawr-Skyway,US,Los Angeles,False,False,True,evasive
511,2022-06-09,2022-06-27,Adam Hawkins,Julie Nguyen,28.54944,-81.77285,Clermont,US,New York,True,True,True,complaining
512,2021-04-24,2021-04-30,Tammy Sweeney,Jared Reid,-17.74431,-48.62789,Caldas Novas,BR,Sao Paulo,False,False,True,panicking
513,1999-05-30,1999-06-11,Brittany Miller,Kevin Evans,-22.45667,-47.53028,Santa Gertrudes,BR,Sao Paulo,False,False,True,panicking
514,1999-02-20,1999-03-06,Regina Murray,Dawn Pierce,41.66394,-83.55521,Toledo,US,New York,False,True,True,accusatory
515,2011-06-24,2011-07-31,Natalie Villa,Julie Lopez,5.6561,-75.87877,Andes,CO,Bogota,False,False,True,sad
516,2002-05-02,2002-05-03,Kellie Wallace,Laura Oconnor,-11.48472,-37.93278,Rio Real,BR,Bahia,False,True,True,panicking
517,1993-04-27,1993-06-05,James Young,Patricia Edwards,38.91817,-78.19444,Front Royal,US,New York,False,False,True,worried
518,2020-08-12,2020-09-28,Robin Stein,William Wood,20.22816,-103.5687,Zacoalco de Torres,MX,Mexico City,False,False,True,complaining
519,2014-01-08,2014-02-04,Christine Patel,Jerry Collins,-25.42944,-50.00639,Palmeira,BR,Sao Paulo,False,True,True,accusatory
520,2004-01-14,2004-03-05,Dennis Skinner,Stephen Ferguson,33.76446,-117.79394,North Tustin,US,Los Angeles,False,False,True,paranoid
521,1998-08-17,1998-10-14,Eric Schmidt,Jacob Salazar,8.88988,-79.62603,Veracruz,PA,Panama,False,True,True,hostile
522,1986-11-07,1987-01-01,Heidi Mathis,James Dawson,32.54044,-82.90375,Dublin,US,New York,False,True,True,paranoid
523,1985-10-24,1985-12-01,Stephen Jones,Margaret Ortega,10.98778,-74.95472,Puerto Colombia,CO,Bogota,True,False,True,unhappy
524,1992-02-07,1992-03-13,John Davis,Angelica Chan,-16.25,-69.08333,Yunguyo,PE,Lima,False,True,True,unhappy
525,2006-09-07,2006-09-26,Brandi Smith,Kendra Mercado,15.48131,-86.57415,Olanchito,HN,Tegucigalpa,False,True,True,fleeing
526,2015-09-15,2015-09-20,James Brown,Glenn Li,32.42067,-104.22884,Carlsbad,US,Denver,False,True,True,hostile
527,2016-01-14,2016-02-01,John Jimenez,Gina Howard,33.35283,-111.78903,Gilbert,US,Phoenix,False,True,True,scared
528,2021-06-24,2021-07-16,Monica Harris DDS,Kaitlyn Booker,45.44868,-73.81669,Pointe-Claire,CA,Toronto,False,True,True,scared
529,2009-04-10,2009-06-04,Amy Parker,Jamie Price,-10.91722,-37.65,Lagarto,BR,Maceio,False,False,True,lonely
530,1993-01-26,1993-03-09,Craig Davidson,Nicholas Rowe,36.06523,-119.01677,Porterville,US,Los Angeles,False,False,True,complaining
531,2005-07-23,2005-08-12,Gerald Hernandez,Ashley Farrell,10.98778,-74.95472,Puerto Colombia,CO,Bogota,False,False,True,accusatory
532,2016-11-06,2016-12-31,Thomas Lopez,Margaret Ortega,41.0051,-73.78458,Scarsdale,US,New York,False,True,True,evasive
533,1987-05-15,1987-05-30,Alexis Chavez,Sarah Green,-21.205,-41.88778,Itaperuna,BR,Sao Paulo,False,True,True,worried
534,2007-01-18,2007-02-28,Gina Carpenter,Pamela Gonzales,5.20856,-74.73584,Honda,CO,Bogota,False,True,True,talkative
535,1995-09-07,1995-10-27,Matthew Hernandez,Jeffrey Graves MD,39.96097,-75.60804,West Chester,US,New York,False,True,True,out-of-control
536,2007-08-16,2007-09-03,Dennis Frye,Kimberly Perez,-28.44917,-52.2,Marau,BR,Sao Paulo,True,False,True,out-of-control
537,1990-12-08,1990-12-28,Laura Henderson,Jeanne Green,-34.64167,-60.47389,Chacabuco,AR,Argentina,False,False,True,oblivious
538,1998-01-02,1998-02-10,Shelby Mercado,Christopher Sandoval,33.45122,-86.99666,Hueytown,US,Chicago,False,False,True,unhappy
539,2013-12-26,2014-01-02,Philip Lee,Donna Mathis,32.5007,-94.74049,Longview,US,Chicago,False,False,True,accusatory
540,2015-05-03,2015-06-16,Taylor Scott,James Kennedy,40.81,-73.9625,Morningside Heights,US,New York,False,True,True,lonely
541,2016-11-17,2016-11-19,Melissa Andrews,Connie Ramos,43.16547,-77.70066,Gates-North Gates,US,New York,False,True,True,complaining
542,2014-11-11,2014-12-17,Christine Hull,Jeffrey Freeman,30.17746,-81.38758,Palm Valley,US,New York,True,False,True,happy
543,2018-10-17,2018-11-02,Julie Baker,Chad Chandler,15.48131,-86.57415,Olanchito,HN,Tegucigalpa,False,True,True,paranoid
544,1999-04-08,1999-05-26,Christy Roberts,Jason Mccarthy,25.87972,-97.50417,Heroica Matamoros,MX,Matamoros,False,True,True,sad
545,2021-10-22,2021-11-14,Matthew Bowen,Sherry Aguilar,41.55838,-81.56929,Collinwood,US,New York,False,True,True,complaining
546,1997-03-03,1997-03-06,Chelsea Mills,Jerry Collins,34.63915,-120.45794,Lompoc,US,Los Angeles,False,True,True,silent
547,2015-11-28,2016-01-22,Timothy Day,William Joseph,26.68451,-80.66756,Belle Glade,US,New York,False,False,True,confessing
548,2006-10-21,2006-12-01,Kristen Vasquez,Cynthia Villegas,35.88264,-80.08199,Thomasville,US,New York,False,False,True,unhappy
549,1991-12-19,1992-02-09,Elizabeth Peterson,Brandi Jones,47.80527,-122.24064,Bothell West,US,Los Angeles,False,False,True,scared
550,1997-12-22,1997-12-29,Diana Solomon,Christopher Miller,18.00747,-76.78319,New Kingston,JM,Jamaica,False,True,True,fleeing
551,2013-02-21,2013-04-13,Kathy Wheeler,Nancy White,43.86682,-79.2663,Markham,CA,Toronto,True,False,True,happy
552,2017-12-08,2017-12-20,Jeanette Wright,Richard Green,26.18924,-98.15529,San Juan,US,Chicago,False,True,True,complaining
553,2020-07-15,2020-08-12,Kenneth Reyes,Tammy Lutz,33.7207,-116.21677,Indio,US,Los Angeles,False,True,True,complaining
554,1994-09-20,1994-10-10,Kathleen Hill,Emily Mccoy,-16.25,-69.08333,Yunguyo,PE,Lima,False,False,True,out-of-control
555,2019-03-02,2019-03-06,Brandon Duran,Vanessa Chapman,5.20856,-74.73584,Honda,CO,Bogota,True,False,True,unhappy
556,2018-09-25,2018-09-25,Theresa Mcfarland,Gabrielle Mendez,-33.59217,-70.6996,San Bernardo,CL,Santiago,False,True,True,oblivious
557,2019-05-16,2019-05-25,Donald Hayes,James Bryant,36.61033,-88.31476,Murray,US,Chicago,True,True,True,fleeing
558,1988-12-24,1989-01-09,Patricia Ponce,Randy Simmons,-2.90055,-79.00453,Cuenca,EC,Guayaquil,True,False,True,oblivious
559,2002-06-30,2002-08-25,Darrell Brooks,Rhonda Jones,29.84576,-90.10674,Estelle,US,Chicago,False,False,True,out-of-control
560,2022-01-12,2022-01-26,Jason Bowman,Michael Tate,-23.44361,-51.87389,Sarandi,BR,Sao Paulo,False,True,True,over-complimenting
561,1993-09-18,1993-11-16,Erica Duffy,Karen Keller MD,35.61452,-88.81395,Jackson,US,Chicago,False,True,True,accusatory
562,1986-06-14,1986-07-07,Tiffany Potter,Kari Chandler,29.84576,-90.10674,Estelle,US,Chicago,False,True,True,talkative
563,2018-10-14,2018-11-29,Kelli Parsons,Rachel Barnes,-10.95817,-38.79084,Tucano,BR,Bahia,False,True,True,fleeing
564,1985-07-29,1985-08-16,Donald Moore,Garrett Cook,46.23899,-63.13414,Charlottetown,CA,Halifax,False,True,True,insulting
565,2008-07-10,2008-08-21,Melanie Walters,Gordon Jimenez,20.28527,-103.42897,Jocotepec,MX,Mexico City,True,True,True,paranoid
566,1994-01-24,1994-03-11,Mr. Justin Lee,Patricia Miller,41.0051,-73.78458,Scarsdale,US,New York,False,True,True,sad
567,2002-09-14,2002-10-25,David Santiago,Jesse Boyd,50.26729,-119.27337,Vernon,CA,Vancouver,False,True,True,silent
568,2012-10-22,2012-12-11,Seth Williams,Ronnie Anthony,39.71734,-74.96933,Sicklerville,US,New York,False,True,True,insulting
569,1995-02-03,1995-03-17,Nathan Mitchell,Eric French,-22.92306,-53.13722,Loanda,BR,Sao Paulo,False,True,True,hostile
570,2021-09-26,2021-10-13,Steve Nguyen,Meredith Gibbs,46.32374,-120.00865,Sunnyside,US,Los Angeles,False,True,True,sad
571,1994-06-24,1994-07-24,Mrs. Karen Smith,Denise Park,37.71715,-122.40433,Visitacion Valley,US,Los Angeles,False,False,False,lonely
572,2002-03-10,2002-04-07,Kiara Johnson,Jeanne Green,40.58654,-122.39168,Redding,US,Los Angeles,True,True,True,worried
573,2006-09-04,2006-10-31,David Norton,Amy Moore,42.30865,-83.48216,Canton,US,Detroit,False,False,True,tense
574,1985-07-08,1985-08-29,George Hudson,Susan Bowers,40.67705,-73.89125,Cypress Hills,US,New York,True,True,True,tense
575,1998-01-25,1998-02-21,Mrs. Brittany Young,Robert Meyer,42.8334,-80.38297,Norfolk County,CA,Toronto,False,True,False,talkative
576,1986-11-11,1986-12-18,James Roberts III,Erik Gibson,-19.7625,-44.31389,Esmeraldas,BR,Sao Paulo,False,False,True,silent
577,1996-04-11,1996-05-09,Crystal Young,Rachel Martin,28.90054,-81.26367,Deltona,US,New York,False,False,True,silent
578,2013-05-12,2013-05-16,Lisa Jacobson,Patrick Stephens,47.4943,-122.24092,Bryn Mawr-Skyway,US,Los Angeles,False,False,True,confessing
579,2008-10-10,2008-11-17,Michele Brown,Charlene Mccormick,39.45621,-77.96389,Martinsburg,US,New York,False,False,True,complaining
580,2009-07-09,2009-07-27,Julie Jones,Wesley Horton,-21.41222,-42.19667,Miracema,BR,Sao Paulo,False,True,True,out-of-control
581,2022-01-13,2022-02-03,Ryan Lynn,Jennifer Cook,41.24255,-82.61573,Norwalk,US,New York,False,False,True,hostile
582,2000-04-08,2000-05-29,Laurie James,Denise Davis,-4.42472,-41.45861,Pedro II,BR,Fortaleza,False,False,True,confessing
583,2019-07-23,2019-08-13,David Reid,Alan Ford,-15.21194,-75.11028,Minas de Marcona,PE,Lima,False,True,True,accusatory
584,2002-02-19,2002-03-15,Phillip Jenkins,Michael Mueller,36.06523,-119.01677,Porterville,US,Los Angeles,False,True,True,accusatory
585,2019-02-20,2019-03-05,Heather Short,Rebecca Snyder MD,-8.05389,-34.88111,Recife,BR,Recife,False,True,True,scared
586,1986-05-30,1986-06-14,Robin Mason,Jerry Collins,41.15376,-87.88754,Bourbonnais,US,Chicago,False,True,False,tense
587,1998-10-27,1998-12-16,Donald Mckinney,Tracy Young,-28.81833,-52.51028,Soledade,BR,Sao Paulo,False,True,True,fleeing
588,1989-03-08,1989-03-16,Robert Snyder,William Zuniga,31.84568,-102.36764,Odessa,US,Chicago,False,True,True,evasive
589,1986-04-21,1986-06-02,Amber Martin,Timothy Frank,33.50921,-111.89903,Scottsdale,US,Phoenix,False,True,False,panicking
590,2006-10-23,2006-10-24,Steven Wilson,Scott Anderson Jr.,47.64995,-117.23991,Opportunity,US,Los Angeles,False,False,True,confessing
591,2016-04-25,2016-06-21,Jessica Perez,Mindy Bates,42.8334,-80.38297,Norfolk County,CA,Toronto,False,True,True,worried
592,1986-04-17,1986-04-21,Terry Novak,Jennifer Shannon,-10.91111,-37.07167,Aracaju,BR,Maceio,False,False,True,lonely
593,2014-12-09,2015-01-16,Alexandria Nelson,Micheal Thomas,-23.44361,-51.87389,Sarandi,BR,Sao Paulo,False,True,True,evasive
594,2008-08-19,2008-09-29,Vanessa Hernandez,Victor Tapia,8.62261,-70.20749,Barinas,VE,Caracas,False,False,True,happy
595,1995-05-12,1995-07-04,Robert Johnson,Daniel Lewis,20.21322,-100.88023,Salvatierra,MX,Mexico City,True,True,True,sad
596,2021-05-09,2021-06-20,Matthew Anthony,Patricia Miller,34.25807,-88.70464,Tupelo,US,Chicago,False,True,True,scared
597,1992-01-08,1992-02-15,David Williams,Kenneth Gutierrez,39.00622,-77.4286,Sterling,US,New York,False,False,False,silent
598,2007-04-28,2007-05-04,Michael Mills,Nicole Scott,34.21639,-119.0376,Camarillo,US,Los Angeles,True,False,True,panicking
599,2007-03-12,2007-05-05,Elizabeth Hodges,Darlene Pitts,40.72371,-73.95097,Greenpoint,US,New York,False,True,True,talkative
600,2003-11-10,2003-12-29,Vanessa Page,Victor Tapia,42.97086,-82.42491,Port Huron,US,Detroit,False,True,True,panicking
601,1999-07-09,1999-07-28,Matthew Foley,Melissa Ellis,39.96097,-75.60804,West Chester,US,New York,False,True,True,lonely
602,1987-05-12,1987-05-21,Lauren Hoffman,Regina Henderson,36.02506,-86.77917,Brentwood Estates,US,Chicago,False,True,True,happy
603,1997-06-30,1997-07-25,Mrs. Stephanie Huffman,Mrs. Kristin Lopez MD,-23.7975,-48.59278,Buri,BR,Sao Paulo,False,False,True,insulting
604,2013-08-08,2013-08-17,Terrence Henderson,Bradley Ewing,-10.91111,-37.07167,Aracaju,BR,Maceio,False,True,True,injured
605,2006-02-26,2006-03-22,Donald Green,Jared Reid,39.78504,-85.76942,Greenfield,US,Indiana,False,True,True,injured
606,2014-05-01,2014-05-16,Emily Cordova,Randy Simmons,41.55838,-81.56929,Collinwood,US,New York,False,False,False,paranoid
607,1986-10-13,1986-10-14,Sean Hughes,Mr. Rodney Franco,14.93333,-91.11667,Chichicastenango,GT,Guatemala,False,True,True,sad
608,1992-11-24,1993-01-07,Samuel Small,Victor Tapia,-21.41222,-42.19667,Miracema,BR,Sao Paulo,False,True,True,confessing
609,1997-10-17,1997-10-20,Samantha Young,Christopher Smith,47.92526,-97.03285,Grand Forks,US,Chicago,False,True,True,talkative
610,2011-05-30,2011-06-25,Steven Elliott,Courtney Thompson,-33.38056,-56.52361,Durazno,UY,Montevideo,False,True,False,complaining
611,1997-10-22,1997-11-10,David Reynolds,Marie Hill,5.6561,-75.87877,Andes,CO,Bogota,False,False,True,lonely
612,1986-08-20,1986-10-02,Rodney Hobbs,Kimberly Gibson,-20.25333,-43.80139,Itabirito,BR,Sao Paulo,False,True,False,confessing
613,2013-01-03,2013-02-23,Christopher Mccall,Brandi Jones,27.09978,-82.45426,Venice,US,New York,False,True,True,paranoid
614,1992-03-10,1992-03-17,Christina Anderson,Richard Reyes,41.27621,-72.86843,East Haven,US,New York,False,True,False,out-of-control
615,1991-10-28,1991-12-17,Julia Gibbs,Scott Anderson Jr.,20.28527,-103.42897,Jocotepec,MX,Mexico City,False,True,True,lonely
616,2009-10-07,2009-10-21,Cynthia Brown,Christopher Baker,10.63504,-85.43772,Liberia,CR,Costa Rica,False,False,False,injured
617,2016-04-08,2016-04-14,Jordan Rodriguez,Latasha Norris,28.90054,-81.26367,Deltona,US,New York,False,True,True,sad
618,1998-11-15,1998-12-17,Aaron Yu,Michelle Lee,34.09611,-118.10583,San Gabriel,US,Los Angeles,False,False,True,sad
619,2000-05-13,2000-05-31,Johnny Bond,Dr. Gregory Gibson,-8.05389,-34.88111,Recife,BR,Recife,False,True,True,confessing
620,2012-09-30,2012-11-10,Robert Ware,Jeffrey Johnson,-10.90889,-37.03861,Barra dos Coqueiros,BR,Maceio,False,False,True,worried
621,2021-07-23,2021-07-25,Kim Sawyer,Jeanne Green,47.92526,-97.03285,Grand Forks,US,Chicago,False,True,True,talkative
622,2018-12-15,2019-01-09,Robert Mccall,David Richardson,44.27804,-88.27205,Kaukauna,US,Chicago,False,True,True,happy
623,2004-11-11,2004-12-13,Vincent Blevins,Bethany Chen,42.30865,-83.48216,Canton,US,Detroit,False,False,True,insulting
624,1998-03-28,1998-03-31,Renee Reyes,Stacey Morris,13.73417,-89.71472,Sonzacate,SV,El Salvador,False,True,True,lonely
625,2022-04-02,2022-05-30,Hayley Gibbs MD,Allen Baker,20.22816,-103.5687,Zacoalco de Torres,MX,Mexico City,False,True,True,insulting
626,2011-11-20,2012-01-12,Samantha Gonzalez,David Strong,37.60876,-77.37331,Mechanicsville,US,New York,False,False,True,out-of-control
627,2012-01-15,2012-02-14,Richard Sexton,Nicole Hart,41.57721,-93.71133,West Des Moines,US,Chicago,True,False,True,injured
628,2004-03-26,2004-04-20,Jacqueline Walton,Kathleen Hicks,4.73245,-74.26419,Madrid,CO,Bogota,False,False,True,silent
629,2019-10-08,2019-10-15,Deborah Howell,Jacqueline Maldonado,41.55815,-73.0515,Waterbury,US,New York,False,True,True,worried
630,2012-08-25,2012-10-08,Thomas Duncan,Shelia Holmes,45.16024,-93.08883,Lino Lakes,US,Chicago,False,True,True,complaining
631,2014-12-27,2015-01-09,Paula Lee,Destiny Peterson,-21.44345,-65.71875,Tupiza,BO,La Paz,False,False,True,confessing
632,2018-03-30,2018-04-16,Jamie Oconnor,Hunter Lee,10.15031,-73.9614,El Copey,CO,Bogota,False,True,True,out-of-control
633,2018-08-22,2018-09-08,Ann Stanley,Lori Lowery,-11.94306,-76.70944,Chosica,PE,Lima,False,True,True,over-complimenting
634,2011-01-20,2011-03-04,Brian Williamson,Jeremy Mason,-22.53722,-42.98194,Guapimirim,BR,Sao Paulo,False,False,True,evasive
635,2008-10-26,2008-11-19,Beth Patel,James Burnett,-15.675,-38.94722,Canavieiras,BR,Bahia,False,True,True,over-complimenting
636,2009-06-04,2009-06-28,Molly Ray,Mary Weaver,41.80753,-87.65644,New City,US,Chicago,False,False,True,unhappy
637,2019-09-29,2019-10-10,James Conway,Amanda Brown,41.48199,-81.79819,Lakewood,US,New York,True,False,True,out-of-control
638,2002-11-10,2002-11-29,Daniel Phillips,Nancy White,47.76232,-122.2054,Bothell,US,Los Angeles,False,False,True,unhappy
639,2014-12-31,2015-01-06,Arthur Weaver,Amanda Brown,-19.7625,-44.31389,Esmeraldas,BR,Sao Paulo,False,False,True,sad
640,2001-11-28,2002-01-19,Christopher Hawkins,Garrett Lawrence,-22.57306,-47.1725,Artur Nogueira,BR,Sao Paulo,False,False,True,friendly
641,2015-04-12,2015-05-15,Laura Buchanan,Jeffery Lee,40.56754,-89.64066,Pekin,US,Chicago,False,False,True,accusatory
642,1992-10-05,1992-10-28,Elizabeth Smith,Mr. Rodney Franco,40.58654,-122.39168,Redding,US,Los Angeles,False,True,True,injured
643,2010-07-14,2010-07-31,Logan Clarke,James Whitehead,42.93369,-72.27814,Keene,US,New York,False,True,True,talkative
644,2007-04-01,2007-05-11,Janet Roy,Teresa Sanchez,-22.97056,-46.99583,Valinhos,BR,Sao Paulo,False,False,False,friendly
645,2016-07-14,2016-07-25,Tiffany Smith,Christopher Greer,-22.57306,-47.1725,Artur Nogueira,BR,Sao Paulo,False,True,False,oblivious
646,2018-05-09,2018-05-20,Joanna Dunn,Larry King,39.00622,-77.4286,Sterling,US,New York,False,False,True,happy
647,2014-09-19,2014-11-16,Jennifer Williams,Patricia Miller,25.87972,-97.50417,Heroica Matamoros,MX,Matamoros,False,False,False,unhappy
648,2020-12-29,2021-01-01,Brandy Sullivan,Summer Mosley,44.27804,-88.27205,Kaukauna,US,Chicago,False,False,True,unhappy
649,2019-06-26,2019-07-09,Raymond Taylor,Victoria Rodriguez,40.60538,-73.75513,Far Rockaway,US,New York,False,True,True,panicking
650,2019-02-19,2019-04-10,Jamie Skinner,Eddie Hall,-10.90889,-37.03861,Barra dos Coqueiros,BR,Maceio,True,True,True,confessing
651,2002-04-15,2002-05-11,Jonathan Taylor,Cynthia Carr,14.67751,-60.94228,Le Robert,MQ,Martinique,False,True,True,talkative
652,2016-04-26,2016-04-30,Brian Decker,Julia Reynolds,46.23899,-63.13414,Charlottetown,CA,Halifax,True,False,True,unhappy
653,1986-08-26,1986-09-13,Jennifer Gomez,Timothy Maldonado,38.70734,-77.02303,Fort Washington,US,New York,False,True,True,complaining
654,2012-06-30,2012-08-02,Anthony Rodriguez,Brian Hickman,-21.41222,-42.19667,Miracema,BR,Sao Paulo,False,True,True,scared
655,2001-04-29,2001-05-03,Linda Richardson,Kyle Thomas,21.01858,-101.2591,Guanajuato,MX,Mexico City,True,True,True,complaining
656,1988-12-12,1989-01-21,Sara Hanson,Jeanette Martinez,47.4943,-122.24092,Bryn Mawr-Skyway,US,Los Angeles,True,False,True,oblivious
657,2009-11-13,2009-12-21,Rebecca Malone,Phillip Quinn,34.95303,-120.43572,Santa Maria,US,Los Angeles,False,False,True,confessing
658,2017-11-03,2017-12-08,Austin Dunlap,Shawn Ramirez,47.76232,-122.2054,Bothell,US,Los Angeles,False,True,True,happy
659,2006-03-02,2006-03-30,Christopher Fischer,Vincent Cooper,40.24537,-75.64963,Pottstown,US,New York,False,False,True,worried
660,2012-11-21,2012-12-13,Richard Whitaker,Amanda Brown,40.68066,-73.47429,Massapequa,US,New York,False,True,True,injured
661,2005-05-23,2005-05-23,Andrea Bennett,Linda Finley,25.87972,-97.50417,Heroica Matamoros,MX,Matamoros,False,True,True,scared
662,2002-12-08,2003-01-02,Spencer Levine,Ronald Friedman,41.80753,-87.65644,New City,US,Chicago,False,True,True,scared
663,1985-10-10,1985-10-11,Madeline Thompson,Ashley Farrell,19.04222,-98.11889,Casa Blanca,MX,Mexico City,False,False,True,happy
664,2016-07-30,2016-09-15,Ashley Hill,Glen Walker,42.30865,-83.48216,Canton,US,Detroit,True,True,True,tense
665,1986-02-18,1986-04-18,Ronald Guzman,Martin Diaz,37.60876,-77.37331,Mechanicsville,US,New York,False,True,True,confessing
666,2010-05-31,2010-07-24,Michael Miller,Margaret Ortega,43.91452,-69.96533,Brunswick,US,New York,False,False,True,silent
667,1988-05-10,1988-05-28,Jennifer Hughes,Sheri Chapman,34.63915,-120.45794,Lompoc,US,Los Angeles,False,True,True,out-of-control
668,1985-11-30,1985-12-02,Willie Butler,Chloe Harris,-23.44361,-51.87389,Sarandi,BR,Sao Paulo,False,True,True,out-of-control
669,2000-04-04,2000-04-16,Eric Porter MD,Jessica Conway,-26.22861,-52.67056,Pato Branco,BR,Sao Paulo,False,True,True,accusatory
670,2018-11-19,2018-11-19,Daniel Cobb,Garrett Allen,-14.66463,-52.35558,Nova Xavantina,BR,Cuiaba,False,True,True,oblivious
671,2004-09-16,2004-09-18,Lauren Parker,Paul Garner,36.61033,-88.31476,Murray,US,Chicago,False,True,True,out-of-control
672,1987-12-24,1988-02-19,Ashley Conner,Alison Peterson,44.73941,-93.12577,Rosemount,US,Chicago,False,True,True,oblivious
673,2005-01-10,2005-03-10,Donna Cross,William Knight,47.76232,-122.2054,Bothell,US,Los Angeles,False,True,True,panicking
674,2011-12-20,2012-01-01,Jared Ferguson,Kendra Miller,19.04222,-98.11889,Casa Blanca,MX,Mexico City,True,True,True,unhappy
675,2020-03-22,2020-05-16,Mary Kramer,Nathaniel Jackson,39.00622,-77.4286,Sterling,US,New York,False,False,True,confessing
676,2022-02-27,2022-04-14,Stephen Hughes,Melissa Ellis,33.35283,-111.78903,Gilbert,US,Phoenix,True,False,True,over-complimenting
677,2009-09-20,2009-10-31,David Terrell,Brandy Mendez,-28.44917,-52.2,Marau,BR,Sao Paulo,False,True,True,paranoid
678,2017-06-28,2017-07-03,Christopher Kelley,Matthew Young,-8.28333,-35.03333,Cabo,BR,Recife,False,False,True,talkative
679,1993-07-27,1993-08-19,John Burnett,Jeffery Carter,42.30865,-83.48216,Canton,US,Detroit,False,False,True,injured
680,1996-08-29,1996-09-04,Scott Wilson,Belinda Thompson,20.22816,-103.5687,Zacoalco de Torres,MX,Mexico City,False,True,True,injured
681,2012-06-17,2012-07-23,Terrence Robinson,William Knight,33.41012,-91.06177,Greenville,US,Chicago,False,True,True,evasive
682,2000-12-05,2000-12-21,Brandon Quinn,Miranda Lester,41.55815,-73.0515,Waterbury,US,New York,False,True,True,scared
683,1996-12-08,1996-12-15,Christopher Lee,Richard Lambert,36.91023,-121.75689,Watsonville,US,Los Angeles,False,True,False,hostile
684,1996-08-24,1996-10-06,Kevin Miller,Daniel Moore,35.25064,-91.73625,Searcy,US,Chicago,False,False,True,tense
685,2013-02-13,2013-03-07,Matthew Berger,Andrew Miranda,34.25807,-88.70464,Tupelo,US,Chicago,False,True,True,silent
686,2009-04-20,2009-06-06,Andrew Robinson,Kevin Martin,39.78504,-85.76942,Greenfield,US,Indiana,False,True,True,happy
687,2017-04-10,2017-04-19,Timothy Neal,Cynthia Villegas,-8.28333,-35.03333,Cabo,BR,Recife,False,False,True,injured
688,2011-07-03,2011-07-16,Jade Elliott,William Barton,40.67705,-73.89125,Cypress Hills,US,New York,False,True,False,sad
689,2006-06-27,2006-07-15,Tanya Garcia,Joshua Moore,42.97086,-82.42491,Port Huron,US,Detroit,True,False,False,scared
690,1987-03-02,1987-03-04,Daniel Bell,Jessica Duran,22.98212,-80.58556,Corralillo,CU,Havana,False,True,True,worried
691,1987-12-09,1988-01-14,Belinda Johnson,Denise Johnson,-3.14306,-58.44417,Itacoatiara,BR,Manaus,False,True,True,tense
692,2010-05-23,2010-07-15,Travis Cruz,Paul Garner,-33.38056,-56.52361,Durazno,UY,Montevideo,False,False,True,oblivious
693,1990-08-04,1990-08-20,Cameron Drake,Robert Merritt,9.15093,-79.62098,Chilibre,PA,Panama,False,False,True,injured
694,1986-10-27,1986-12-23,Paul Lucas,Larry Wiggins,-11.94306,-76.70944,Chosica,PE,Lima,False,True,True,evasive
695,2002-11-09,2002-11-22,Jamie Rodriguez,Bethany Chen,-37.32167,-59.13316,Tandil,AR,Argentina,False,True,True,worried
696,1989-06-19,1989-07-29,John Palmer,Victoria Rodriguez,18.57677,-72.22625,Croix-des-Bouquets,HT,Port-au-Prince,False,True,True,fleeing
697,2012-04-07,2012-05-01,Anthony Smith,Jason Mccarthy,41.47892,-87.45476,Schererville,US,Chicago,False,False,True,tense
698,2015-10-10,2015-10-14,Emily West,Maurice Mccarthy,35.25064,-91.73625,Searcy,US,Chicago,False,True,True,unhappy
699,1998-02-18,1998-03-30,Leah Allen,Joseph Moore DVM,-33.38056,-56.52361,Durazno,UY,Montevideo,False,True,True,oblivious
700,2015-01-09,2015-03-08,Stephanie Montgomery,Joshua Reed,-22.97056,-46.99583,Valinhos,BR,Sao Paulo,True,True,True,complaining
701,2007-04-15,2007-05-26,Melissa Burns,Crystal Kelly,-23.7975,-48.59278,Buri,BR,Sao Paulo,False,True,True,confessing
702,2017-07-04,2017-07-24,John Day,Darren Simpson,15.48131,-86.57415,Olanchito,HN,Tegucigalpa,False,False,True,tense
703,1993-08-06,1993-09-06,Daniel Williams,Isabel Webb,34.21639,-119.0376,Camarillo,US,Los Angeles,True,False,True,worried
704,2005-04-15,2005-06-11,Ronald Morris,Shelley Sheppard,-12.91667,-39.25,Muritiba,BR,Bahia,False,False,True,fleeing
705,1985-12-22,1986-01-26,Jennifer Spencer,Lauren Smith,43.61062,-72.97261,Rutland,US,New York,False,True,True,complaining
706,2019-12-27,2020-01-10,Michael Stephens,Leslie Anderson,41.24255,-82.61573,Norwalk,US,New York,False,False,False,silent
707,2008-04-06,2008-05-25,Michael Stephenson,Logan Duncan,40.67705,-73.89125,Cypress Hills,US,New York,False,True,True,tense
708,1987-09-26,1987-10-22,Nicole Humphrey,Lacey Brown,-15.21194,-75.11028,Minas de Marcona,PE,Lima,False,True,True,unhappy
709,1985-09-27,1985-11-08,John Bennett,William Gallagher,33.45122,-86.99666,Hueytown,US,Chicago,False,True,True,worried
710,2021-03-11,2021-04-04,Samantha Dougherty,Sharon Young,10.15031,-73.9614,El Copey,CO,Bogota,False,False,True,happy
711,2020-07-12,2020-07-19,Joshua Park,Evelyn Hines,43.1009,-75.23266,Utica,US,New York,False,True,True,panicking
712,1987-03-03,1987-03-10,Laura Robinson,Victoria Rodriguez,34.21639,-119.0376,Camarillo,US,Los Angeles,False,True,True,complaining
713,2016-03-02,2016-03-06,Tiffany Farrell,Christopher Sandoval,42.7392,-84.62081,Waverly,US,Detroit,False,False,True,out-of-control
714,2018-03-20,2018-04-20,Sydney Walters DVM,Kathleen Castro,-20.25333,-43.80139,Itabirito,BR,Sao Paulo,False,False,True,fleeing
715,1999-03-28,1999-04-30,April Chavez,Eric Roberts,23.15678,-81.24441,Varadero,CU,Havana,False,True,True,fleeing
716,2021-11-24,2021-12-12,Adrian Oconnell,Jeffrey Freeman,38.54491,-121.74052,Davis,US,Los Angeles,False,False,True,over-complimenting
717,1994-01-16,1994-02-06,Christopher Gregory,Stephen Mills,-34.64167,-60.47389,Chacabuco,AR,Argentina,False,True,True,silent
718,1989-04-25,1989-06-14,Mrs. Dana Russell,Kenneth Barrett,-21.205,-41.88778,Itaperuna,BR,Sao Paulo,False,True,True,sad
719,2019-02-15,2019-04-05,Jennifer Rodriguez,Shelley Richardson,47.38093,-122.23484,Kent,US,Los Angeles,False,True,True,unhappy
720,2020-10-29,2020-12-20,Andre Mason,Katelyn Cook,-17.74431,-48.62789,Caldas Novas,BR,Sao Paulo,False,False,True,out-of-control
721,1985-11-11,1985-11-25,Ryan Peterson,Jeanette Martinez,41.84364,-87.71255,South Lawndale,US,Chicago,True,True,True,accusatory
722,2019-07-29,2019-08-10,Travis Wright,Michael Webb,18.57677,-72.22625,Croix-des-Bouquets,HT,Port-au-Prince,False,True,True,out-of-control
723,1996-01-06,1996-01-26,Catherine Deleon,Sonia Mcdaniel,19.04222,-98.11889,Casa Blanca,MX,Mexico City,False,True,True,unhappy
724,2007-07-20,2007-09-11,Joann Quinn,Emily Brown,39.78504,-85.76942,Greenfield,US,Indiana,False,True,True,injured
725,2007-06-17,2007-08-10,Christie Olsen,Margaret Ortega,8.88988,-79.62603,Veracruz,PA,Panama,False,False,True,oblivious
726,1995-01-02,1995-02-07,Daniel Guerra,Kerry Buck,44.73941,-93.12577,Rosemount,US,Chicago,True,True,True,tense
727,2005-10-11,2005-11-04,Miranda Vargas,Kimberly Perez,-15.675,-38.94722,Canavieiras,BR,Bahia,False,True,True,out-of-control
728,1992-05-26,1992-06-26,Amanda Jones,Thomas Hamilton,11.84962,-86.19903,Jinotepe,NI,Managua,False,False,True,oblivious
729,1988-08-07,1988-08-12,David Chandler,Adam Irwin,45.44868,-73.81669,Pointe-Claire,CA,Toronto,False,True,False,silent
730,1999-05-25,1999-07-13,Lorraine Houston,Kimberly Mills,5.20856,-74.73584,Honda,CO,Bogota,False,False,True,sad
731,1989-03-02,1989-03-05,Angela Mills,Karen Weber,-28.24,-48.67028,Imbituba,BR,Sao Paulo,False,True,True,hostile
732,2021-08-03,2021-09-12,Marcus Taylor,Angela Strickland,47.38093,-122.23484,Kent,US,Los Angeles,True,True,True,worried
733,2006-03-03,2006-03-04,Todd Brewer,Kathy Meadows,19.04222,-98.11889,Casa Blanca,MX,Mexico City,True,False,True,unhappy
734,2008-11-26,2008-12-25,Benjamin Reed,Justin Edwards,40.65995,-111.99633,Kearns,US,Denver,False,True,True,evasive
735,1985-10-30,1985-11-06,Katherine Robinson,Kari Chandler,23.0072,-82.4017,Boyeros,CU,Havana,False,True,True,fleeing
736,1988-11-12,1988-11-23,Mr. Steven Young,Jason Berg,35.88264,-80.08199,Thomasville,US,New York,False,True,True,silent
737,1997-09-24,1997-10-11,Carlos Hammond,Patricia Edwards,-22.97056,-46.99583,Valinhos,BR,Sao Paulo,True,True,True,confessing
738,2020-07-16,2020-07-17,Casey Potts,Misty Young,43.54072,-116.56346,Nampa,US,Boise,False,True,True,tense
739,2004-10-05,2004-10-24,Tiffany Moreno,Linda Edwards,-32.45242,-71.23106,La Ligua,CL,Santiago,False,False,True,happy
740,1987-01-18,1987-03-17,Heather Ruiz,Jennifer Swanson,-8.28333,-35.03333,Cabo,BR,Recife,False,True,True,scared
741,1987-06-13,1987-06-17,Anthony Castro,Todd Garcia,41.55838,-81.56929,Collinwood,US,New York,True,True,True,tense
742,1987-09-25,1987-10-25,Gina Chen,Sarah Brown,45.49428,-122.86705,Aloha,US,Los Angeles,True,True,True,sad
743,2017-03-14,2017-03-30,Mark Smith,Katelyn Garcia,34.14251,-118.25508,Glendale,US,Los Angeles,False,True,True,out-of-control
744,2020-12-20,2020-12-30,Ethan Jackson,Sheri Chapman,34.25628,-78.04471,Leland,US,New York,False,False,True,accusatory
745,1999-01-20,1999-01-27,Doris Lane,Rebecca Snyder MD,39.43534,-84.20299,Lebanon,US,New York,True,True,True,friendly
746,2014-09-01,2014-10-22,Kevin Clarke DDS,Eugene Brown,41.72059,-87.70172,Evergreen Park,US,Chicago,False,True,True,unhappy
747,1994-01-28,1994-02-11,Stephanie Austin,Denise Johnson,37.71715,-122.40433,Visitacion Valley,US,Los Angeles,False,False,True,accusatory
748,2001-03-27,2001-04-29,Janice Chapman,Ms. Sheila Campbell MD,35.05266,-78.87836,Fayetteville,US,New York,False,False,True,confessing
749,2013-07-03,2013-08-09,Matthew Thomas,Jane Hall,-2.13404,-79.59415,Milagro,EC,Guayaquil,False,True,True,lonely
750,1985-05-13,1985-06-18,Tim Costa,Brian Torres,-28.44917,-52.2,Marau,BR,Sao Paulo,False,True,True,unhappy
751,1997-09-16,1997-10-31,Jacob Johnson,Brian Velasquez,18.00747,-76.78319,New Kingston,JM,Jamaica,False,True,True,talkative
752,1985-07-04,1985-08-10,Amanda Washington,Mark Valenzuela,34.14251,-118.25508,Glendale,US,Los Angeles,False,True,True,lonely
753,1990-07-25,1990-08-07,Caroline Kim,Joshua Curtis,39.43534,-84.20299,Lebanon,US,New York,False,False,False,confessing
754,2017-07-20,2017-07-25,Mark Faulkner,Robert Jenkins,32.5007,-94.74049,Longview,US,Chicago,False,True,True,scared
755,1986-03-11,1986-03-14,Pamela Bell,Dawn Pierce,41.27621,-72.86843,East Haven,US,New York,True,True,True,talkative
756,1986-06-01,1986-06-18,Alexis Olson,Linda Edwards,33.72255,-116.37697,Palm Desert,US,Los Angeles,False,True,True,worried
757,2012-02-12,2012-03-01,Lawrence Mendoza,Gregory Moore,18.20854,-71.10077,Santa Cruz de Barahona,DO,Santo Domingo,False,False,True,hostile
758,1994-12-13,1995-01-31,John Austin,David Woodward,40.72371,-73.95097,Greenpoint,US,New York,False,False,True,injured
759,1993-07-10,1993-07-23,Travis Stephens,Chad Chandler,39.32288,-76.72803,Woodlawn,US,New York,True,False,True,confessing
760,1997-10-10,1997-10-17,Kylie Olsen,Denise Johnson,41.27621,-72.86843,East Haven,US,New York,False,True,True,panicking
761,2015-01-16,2015-02-12,Sherry Vargas,Jacqueline Maldonado,18.03496,-66.8499,Yauco,PR,Puerto Rico,False,False,True,over-complimenting
762,2012-08-10,2012-08-14,William Johnson,Michael Riddle,34.09668,-117.71978,Claremont,US,Los Angeles,False,False,True,paranoid
763,1988-06-17,1988-07-03,Abigail Taylor,Elizabeth Cooper,23.0072,-82.4017,Boyeros,CU,Havana,True,True,True,scared
764,1993-04-24,1993-05-18,Mr. Ian Villarreal MD,Cynthia Villegas,20.21322,-100.88023,Salvatierra,MX,Mexico City,True,True,True,panicking
765,2002-08-15,2002-09-04,Lindsay Hickman,Kenneth Gutierrez,34.95303,-120.43572,Santa Maria,US,Los Angeles,True,False,True,over-complimenting
766,1991-04-12,1991-06-05,Randy Anderson,James Brock,33.52253,-117.70755,Laguna Niguel,US,Los Angeles,False,True,True,oblivious
767,1989-12-10,1989-12-18,David Grant,Tiffany Bennett,-19.32556,-41.25528,Resplendor,BR,Sao Paulo,False,False,True,worried
768,2017-05-24,2017-05-28,Meghan Stevenson,Mindy Bates,10.66668,-61.51889,Port of Spain,TT,Port of Spain,False,True,True,injured
769,1989-07-18,1989-08-04,Danielle Crawford,William Wood,-33.59217,-70.6996,San Bernardo,CL,Santiago,False,False,True,insulting
770,1990-11-06,1990-12-24,Emily Byrd,Allen Baker,-21.205,-41.88778,Itaperuna,BR,Sao Paulo,False,True,True,lonely
771,2008-05-13,2008-05-16,Brandy Oconnell,Diana Torres,40.72371,-73.95097,Greenpoint,US,New York,False,True,True,oblivious
772,2007-06-19,2007-06-30,Michael Mason,Garrett Lawrence,39.96097,-75.60804,West Chester,US,New York,True,True,True,insulting
773,2013-01-29,2013-02-22,Cindy Barton,Mrs. Kristin Lopez MD,39.72943,-104.83192,Aurora,US,Denver,False,True,True,lonely
774,2000-02-11,2000-02-14,Dennis Dean,Joshua Guzman,40.68066,-73.47429,Massapequa,US,New York,False,False,True,insulting
775,2007-07-25,2007-08-24,Jason Kelly,Charles Walls,42.7392,-84.62081,Waverly,US,Detroit,True,True,True,evasive
776,2013-06-09,2013-06-15,Mitchell Chung,Nicholas Rowe,41.66394,-83.55521,Toledo,US,New York,True,False,True,injured
777,2013-03-14,2013-04-11,Dr. Benjamin Martin,Jeffery Lee,-23.7975,-48.59278,Buri,BR,Sao Paulo,False,True,True,sad
778,1988-10-14,1988-11-07,Edward Pena,Lisa Sweeney,34.25807,-88.70464,Tupelo,US,Chicago,True,False,True,sad
779,1994-02-02,1994-03-19,Ricky Harmon,James Anderson,8.62261,-70.20749,Barinas,VE,Caracas,False,False,True,scared
780,1992-12-29,1993-01-07,Angela Hammond,Michael Mueller,34.95303,-120.43572,Santa Maria,US,Los Angeles,True,True,False,over-complimenting
781,2013-06-30,2013-07-12,Krystal Franklin,Jeremy Moran,26.91756,-82.07842,Punta Gorda Isles,US,New York,False,True,True,hostile
782,1995-11-01,1995-11-22,Brandi Williams,Natalie Jordan,45.53929,-122.38731,Troutdale,US,Los Angeles,False,True,True,confessing
783,2003-06-13,2003-07-24,Jerry Boyer,Robert Jenkins,35.25064,-91.73625,Searcy,US,Chicago,False,True,True,injured
784,1997-01-28,1997-02-03,Kevin Jones,Andre Lamb,30.5427,-97.54667,Hutto,US,Chicago,False,False,True,over-complimenting
785,2018-03-13,2018-04-05,Nathan Hutchinson,Richard Lambert,34.25628,-78.04471,Leland,US,New York,False,False,True,unhappy
786,2019-03-22,2019-03-28,Benjamin Ramos,Crystal Kelly,38.06084,-97.92977,Hutchinson,US,Chicago,True,True,True,sad
787,1992-07-05,1992-08-14,William Bennett,James Burnett,40.56754,-89.64066,Pekin,US,Chicago,False,True,True,confessing
788,1997-10-30,1997-11-28,Katherine Johnson,Lauren Mccoy,32.35126,-95.30106,Tyler,US,Chicago,False,True,True,fleeing
789,1990-11-23,1990-12-23,Maria Merritt,Christopher Morris,21.28306,-89.66123,Progreso,MX,Merida,False,True,True,over-complimenting
790,1989-06-21,1989-07-02,Bryan Lopez,Andrew Miranda,36.61033,-88.31476,Murray,US,Chicago,False,True,True,insulting
791,1987-04-27,1987-06-21,Joshua Benitez,Laura Oconnor,45.16024,-93.08883,Lino Lakes,US,Chicago,False,True,True,talkative
792,2020-02-28,2020-03-02,Erin Leblanc,Amber Wright,41.14676,-73.49484,New Canaan,US,New York,False,False,True,happy
793,1994-12-29,1995-02-25,Joseph Rodriguez,Sandra Ramos,19.32889,-99.32556,San Lorenzo Acopilco,MX,Mexico City,False,True,True,over-complimenting
794,2015-03-18,2015-04-12,Shane Patterson,Maria Tucker,50.26729,-119.27337,Vernon,CA,Vancouver,False,True,False,hostile
795,2012-07-02,2012-08-18,Elizabeth Gray,Alexandra Jones,32.52515,-93.75018,Shreveport,US,Chicago,False,True,True,fleeing
796,2017-03-25,2017-03-28,David Park,Valerie Griffin,22.98212,-80.58556,Corralillo,CU,Havana,True,False,True,paranoid
797,2021-04-19,2021-06-13,Julian Baker,Jasmine Rowland,34.25807,-88.70464,Tupelo,US,Chicago,False,False,True,scared
798,1998-06-07,1998-07-01,Joseph Shepherd,Regina Henderson,41.0051,-73.78458,Scarsdale,US,New York,False,False,True,insulting
799,1994-02-21,1994-03-29,Darrell Henderson,Patricia Hall,43.86682,-79.2663,Markham,CA,Toronto,True,True,False,injured
800,2003-10-15,2003-10-18,Karen Garcia,Melinda Soto,32.5007,-94.74049,Longview,US,Chicago,False,True,True,confessing
801,1986-11-09,1987-01-04,Meghan Olson,Jordan Torres,45.0408,-93.263,Columbia Heights,US,Chicago,True,True,True,panicking
802,1987-03-26,1987-04-01,Ashley Pratt,Isabel Webb,39.32011,-76.51552,Rosedale,US,New York,False,True,True,talkative
803,1988-10-31,1988-12-21,Jonathan Taylor,James Burnett,33.03699,-117.29198,Encinitas,US,Los Angeles,False,False,True,tense
804,2000-12-16,2000-12-27,Jeffrey Acevedo,Hannah Palmer,40.72816,-74.07764,Jersey City,US,New York,False,True,True,accusatory
805,1987-05-24,1987-07-14,Brandi Stanley,Jeffrey Graves MD,3.8801,-77.03116,Buenaventura,CO,Bogota,False,True,True,sad
806,1998-11-20,1998-12-01,Cynthia Nash,Tony Bell,-3.20333,-52.20639,Altamira,BR,Santarem,False,True,True,panicking
807,2016-09-23,2016-09-30,Breanna Reed,Cynthia Moore,41.50343,-74.01042,Newburgh,US,New York,True,False,True,friendly
808,1992-03-09,1992-03-17,Samuel Johnson,Ashley Davis,35.25064,-91.73625,Searcy,US,Chicago,True,True,True,over-complimenting
809,2021-05-21,2021-07-14,Miguel Montgomery,Tammy Bruce,18.57677,-72.22625,Croix-des-Bouquets,HT,Port-au-Prince,False,True,True,confessing
810,1991-11-05,1991-11-14,Patrick Gallagher,Mary Scott,41.50343,-74.01042,Newburgh,US,New York,False,False,True,confessing
811,1996-05-06,1996-06-28,Joseph Johnson,Brooke Crawford,14.67751,-60.94228,Le Robert,MQ,Martinique,False,True,False,scared
812,1998-05-19,1998-06-20,Matthew Lee,Brandi Jones,-25.42778,-49.27306,Curitiba,BR,Sao Paulo,False,False,True,sad
813,2020-11-27,2021-01-11,Stephanie Gonzales,Christopher Miller,41.48199,-81.79819,Lakewood,US,New York,False,False,True,panicking
814,2000-03-10,2000-03-31,Kelsey Grant,Beth Cuevas,38.96372,-76.99081,Chillum,US,New York,False,True,True,friendly
815,2017-04-27,2017-04-29,Frank Smith,Timothy Frank,41.66394,-83.55521,Toledo,US,New York,False,True,True,sad
816,2014-04-05,2014-04-10,Martha Nguyen,Connie Ramos,10.66668,-61.51889,Port of Spain,TT,Port of Spain,False,True,True,unhappy
817,2021-04-27,2021-05-27,Anthony Pugh,Linda Finley,-21.41222,-42.19667,Miracema,BR,Sao Paulo,False,False,True,evasive
818,1995-04-12,1995-05-10,Susan Taylor,Caleb Cook,47.76232,-122.2054,Bothell,US,Los Angeles,False,True,False,oblivious
